$GPGSV,3,1,11,01,00,000,,02,07,316,,03,46,132,,06,32,278,*70
$GPGSV,3,2,11,07,51,227,,09,55,330,,16,27,068,,22,12,135,*7D
$GPGSV,3,3,11,23,55,033,,26,11,045,,30,20,222,*4E
$GLGSV,2,1,08,78,05,202,,66,60,054,,82,04,274,,77,58,192,*6B
$GLGSV,2,2,08,75,06,026,,65,19,112,,83,01,323,,67,34,331,*6B
$GPGSA,A,1,,,,,,,,,,,,,,,*1E
$GPVTG,,T,,M,,N,,K,N*2C
$GPRMC,,V,,,,,,,,,,N*53
$GPGGA,,,,,,0,,,,,,,,*66
$GPGSV,3,1,11,01,00,000,,02,07,316,,03,46,132,,06,32,278,*70
$GPGSV,3,2,11,07,51,227,,09,55,330,,16,27,068,,22,12,135,*7D
$GPGSV,3,3,11,23,55,033,,26,11,045,,30,20,222,*4E
$GLGSV,2,1,08,78,05,202,,66,60,054,,82,04,274,,77,58,192,*6B
$GLGSV,2,2,08,75,06,026,,65,19,112,,83,01,323,,67,34,331,*6B
$GPGSA,A,1,,,,,,,,,,,,,,,*1E
$GPVTG,,T,,M,,N,,K,N*2C
$GPRMC,,V,,,,,,,,,,N*53
$GPGGA,,,,,,0,,,,,,,,*66
$GPGSV,3,1,11,03,46,132,23,06,32,278,26,01,00,000,,02,07,316,*75
$GPGSV,3,2,11,07,51,227,,09,55,330,,16,27,068,,22,12,135,*7D
$GPGSV,3,3,11,23,55,033,,26,11,045,,30,20,222,*4E
$GLGSV,2,1,08,78,05,202,,66,60,054,,82,04,274,,77,58,192,*6B
$GLGSV,2,2,08,75,06,026,,65,19,112,,83,01,323,,67,34,331,*6B
$GPGSA,A,1,,,,,,,,,,,,,,,*1E
$GPVTG,,T,,M,,N,,K,N*2C
$GPRMC,,V,,,,,,,,,,N*53
$GPGGA,,,,,,0,,,,,,,,*66
$GPGSV,3,1,11,03,46,132,27,06,32,278,26,23,55,033,26,01,00,000,*75
$GPGSV,3,2,11,02,07,316,,07,51,227,,09,55,330,,16,27,068,*78
$GPGSV,3,3,11,22,12,135,,26,11,045,,30,20,222,*4B
$GLGSV,2,1,08,78,05,202,,66,60,054,,82,04,274,,77,58,192,*6B
$GLGSV,2,2,08,75,06,026,,65,19,112,,83,01,323,,67,34,331,*6B
$GPGSV,3,1,11,03,46,132,24,06,32,278,22,07,51,227,21,22,12,135,22*75
$GPGSV,3,2,11,23,55,033,20,30,20,222,20,01,00,000,,02,07,316,*7A
$GPGSV,3,3,11,09,55,330,,16,27,068,,26,11,045,*49
$GLGSV,2,1,08,75,06,026,24,78,05,202,,66,60,054,,82,04,274,*6A
$GLGSV,2,2,08,77,58,192,,65,19,112,,83,01,323,,67,34,331,*6C
$GPGSA,A,1,,,,,,,,,,,,,,,*1E
$GPVTG,,T,,M,,N,,K,N*2C
$GPRMC,,V,,,,,,,,,,N*53
$GPGGA,,,,,,0,,,,,,,,*66
$GPGSV,3,1,11,03,46,132,24,06,32,278,22,07,51,227,21,22,12,135,22*75
$GPGSV,3,2,11,23,55,033,20,30,20,222,20,01,00,000,,02,07,316,*7A
$GPGSV,3,3,11,09,55,330,,16,27,068,,26,11,045,*49
$GLGSV,2,1,08,75,06,026,24,78,05,202,,66,60,054,,82,04,274,*6A
$GLGSV,2,2,08,77,58,192,,65,19,112,,83,01,323,,67,34,331,*6C
$GPGSA,A,1,,,,,,,,,,,,,,,*1E
$GPVTG,,T,,M,,N,,K,N*2C
$GPRMC,,V,,,,,,,,,,N*53
$GPGGA,,,,,,0,,,,,,,,*66
$GPGSV,3,1,11,03,46,132,26,06,32,278,21,07,51,227,20,22,12,135,20*77
$GPGSV,3,2,11,23,55,033,20,30,21,222,18,01,00,000,,02,07,316,*70
$GPGSV,3,3,11,09,55,330,,16,27,068,,26,11,043,*4F
$GLGSV,2,1,08,75,06,026,24,83,01,323,21,67,34,331,19,78,05,202,*66
$GLGSV,2,2,08,66,60,054,,82,04,274,,77,58,192,,65,19,112,*6B
$GPGSA,A,1,,,,,,,,,,,,,,,*1E
$GPVTG,,T,,M,,N,,K,N*2C
$GPRMC,,V,,,,,,,,,,N*53
$GPGGA,,,,,,0,,,,,,,,*66
$GPGSV,3,1,11,03,46,132,20,06,32,278,19,07,51,227,20,22,12,135,18*71
$GPGSV,3,2,11,23,55,033,20,26,11,043,18,30,21,222,17,01,00,000,*74
$GPGSV,3,3,11,02,07,316,,09,55,330,,16,27,068,*4D
$GLGSV,2,1,08,66,60,054,18,75,06,026,21,83,01,323,21,67,34,331,19*67
$GLGSV,2,2,08,78,05,202,,82,04,274,,77,58,192,,65,19,112,*66
$GPGSA,A,1,,,,,,,,,,,,,,,*1E
$GPVTG,,T,,M,,N,,K,N*2C
$GPRMC,,V,,,,,,,,,,N*53
$GPGGA,,,,,,0,,,,,,,,*66
$GPGSV,3,1,11,03,46,132,21,06,32,278,19,07,51,227,19,22,12,135,19*7B
$GPGSV,3,2,11,23,55,033,20,26,11,043,18,30,21,222,16,01,00,000,*75
$GPGSV,3,3,11,02,07,316,,09,55,330,,16,27,068,*4D
$GLGSV,2,1,08,66,60,054,17,75,06,026,19,83,01,323,21,67,34,331,18*62
$GLGSV,2,2,08,78,05,202,,82,04,274,,77,58,192,,65,19,112,*66
$GPGSA,A,3,03,06,22,23,,,,,,,,,1.7,1.1,1.3*32
$GPVTG,141.0,T,141.0,M,33.5,N,62.0,K,A*22
$GPRMC,061742,A,3212.334814,N,03457.414370,E,33.5,141.0,100416,3.0,E,A*26
$GPGGA,061742,3212.334814,N,03457.414370,E,1,04,1.1,83.0,M,19.0,M,,*78
$GPGSV,3,1,11,03,46,132,19,06,32,278,17,07,51,227,18,22,12,135,19*7F
$GPGSV,3,2,11,23,55,033,20,26,11,043,18,30,21,222,16,01,00,000,*75
$GPGSV,3,3,11,02,07,316,,09,55,330,,16,27,068,*4D
$GLGSV,2,1,08,66,60,054,17,75,06,026,19,83,01,323,21,67,34,331,18*62
$GLGSV,2,2,08,78,05,202,,82,04,274,,77,58,192,,65,19,112,*66
$GPGSA,A,3,03,06,22,23,,,,,,,,,1.7,1.1,1.3*32
$GPVTG,140.6,T,140.6,M,33.6,N,62.3,K,A*22
$GPRMC,061743,A,3212.326041,N,03457.429898,E,33.6,140.6,100416,3.0,E,A*2B
$GPGGA,061743,3212.326041,N,03457.429898,E,1,04,1.1,78.0,M,19.0,M,,*75
$GPGSV,3,1,11,03,46,132,21,06,32,278,20,07,51,227,18,22,12,135,18*71
$GPGSV,3,2,11,23,55,033,20,26,11,043,18,30,21,222,16,01,00,000,*75
$GPGSV,3,3,11,02,07,316,,09,55,330,,16,27,068,*4D
$GLGSV,2,1,08,66,60,054,16,75,06,026,18,83,01,323,21,67,34,331,17*6D
$GLGSV,2,2,08,78,05,202,,82,04,274,,77,58,192,,65,19,112,*66
$GPGSA,A,3,03,06,22,23,,,,,,,,,1.7,1.1,1.3*32
$GPVTG,140.0,T,140.0,M,32.9,N,60.8,K,A*25
$GPRMC,061744,A,3212.322478,N,03457.425006,E,32.9,140.0,100416,3.0,E,A*2D
$GPGGA,061744,3212.322478,N,03457.425006,E,1,04,1.1,73.0,M,19.0,M,,*70
$GPGSV,3,1,11,03,46,132,21,06,32,278,20,07,51,227,17,22,12,135,20*75
$GPGSV,3,2,11,23,55,033,20,26,11,043,18,30,21,222,16,01,00,000,*75
$GPGSV,3,3,11,02,07,316,,09,55,330,,16,27,068,*4D
$GLGSV,2,1,08,66,60,054,16,75,06,026,22,65,19,112,17,83,01,323,21*6A
$GLGSV,2,2,08,67,34,331,16,78,05,202,,82,04,274,,77,58,192,*6F
$GPGSA,A,3,03,06,22,23,,,,,,,,,1.4,0.9,1.1*3A
$GPVTG,144.5,T,144.5,M,33.0,N,61.2,K,A*26
$GPRMC,061745,A,3212.317946,N,03457.424714,E,33.0,144.5,100416,3.0,E,A*26
$GPGGA,061745,3212.317946,N,03457.424714,E,1,04,0.9,90.0,M,19.0,M,,*76
$GPGSV,3,1,11,03,46,132,19,06,32,278,20,07,51,227,17,22,12,135,21*7F
$GPGSV,3,2,11,23,55,033,20,26,11,043,18,30,21,222,16,01,00,000,*75
$GPGSV,3,3,11,02,07,316,,09,55,330,,16,27,068,*4D
$GLGSV,2,1,08,66,60,054,16,75,06,026,22,65,19,112,17,83,01,323,21*6A
$GLGSV,2,2,08,67,34,331,16,78,05,202,,82,04,274,,77,58,192,*6F
$GPGSA,A,3,03,06,22,23,,,,,,,,,1.2,0.9,0.8*34
$GPVTG,144.0,T,144.0,M,32.8,N,60.7,K,A*2B
$GPRMC,061746,A,3212.292414,N,03457.424999,E,32.8,144.0,100416,3.0,E,A*24
$GPGGA,061746,3212.292414,N,03457.424999,E,1,04,0.9,114.0,M,19.0,M,,*45
$GPGSV,3,1,11,03,46,132,19,06,32,278,20,07,51,227,17,09,55,330,15*75
$GPGSV,3,2,11,16,27,068,15,22,12,135,22,23,55,033,20,26,11,043,18*7D
$GPGSV,3,3,11,30,21,222,16,01,00,000,,02,07,316,*4C
$GLGSV,2,1,08,66,60,054,16,82,04,274,14,75,06,026,22,65,19,112,17*6B
$GLGSV,2,2,08,83,01,323,21,67,34,331,16,78,05,202,,77,58,192,*6B
$GPGSA,A,3,03,06,07,09,16,22,23,,,,,,1.5,1.2,0.9*31
$GPVTG,143.6,T,143.6,M,33.0,N,61.1,K,A*25
$GPRMC,061747,A,3212.284237,N,03457.430346,E,33.0,143.6,100416,3.0,E,A*20
$GPGGA,061747,3212.284237,N,03457.430346,E,1,07,1.2,104.0,M,19.0,M,,*41
$GPGSV,3,1,11,03,46,132,17,06,32,278,20,07,51,227,19,09,55,330,14*74
$GPGSV,3,2,11,16,27,068,15,22,12,135,22,23,55,033,20,26,11,043,18*7D
$GPGSV,3,3,11,30,21,222,16,01,00,000,,02,07,316,*4C
$GLGSV,2,1,08,66,60,054,16,82,04,274,14,75,06,026,22,65,19,112,18*64
$GLGSV,2,2,08,83,01,323,21,67,34,331,16,78,05,202,,77,58,192,*6B
$GPGSA,A,3,03,06,07,09,16,22,23,,,,,,1.5,1.2,0.9*31
$GPVTG,143.3,T,143.3,M,32.4,N,60.0,K,A*20
$GPRMC,061748,A,3212.276461,N,03457.437462,E,32.4,143.3,100416,3.0,E,A*21
$GPGGA,061748,3212.276461,N,03457.437462,E,1,07,1.2,106.0,M,19.0,M,,*42
$GPGSV,3,1,11,03,46,132,17,06,32,278,20,07,51,227,20,09,55,330,14*7E
$GPGSV,3,2,11,16,27,068,15,22,12,135,22,23,55,033,20,26,11,043,18*7D
$GPGSV,3,3,11,30,21,222,16,01,00,000,,02,07,316,*4C
$GLGSV,2,1,08,66,60,054,16,82,04,274,15,75,06,026,22,65,19,112,18*65
$GLGSV,2,2,08,83,01,323,21,67,34,331,16,78,05,202,,77,58,192,*6B
$GPGSA,A,3,03,06,07,09,16,22,23,,,,,,1.6,1.3,0.9*33
$GPVTG,143.7,T,143.7,M,32.0,N,59.2,K,A*2C
$GPRMC,061749,A,3212.267519,N,03457.443698,E,32.0,143.7,100416,3.0,E,A*2A
$GPGGA,061749,3212.267519,N,03457.443698,E,1,07,1.3,98.0,M,19.0,M,,*7E
$GPGSV,3,1,11,03,46,132,17,06,32,278,20,07,51,227,19,09,55,330,14*74
$GPGSV,3,2,11,16,27,068,15,22,12,135,21,23,55,033,12,26,11,043,16*71
$GPGSV,3,3,11,30,21,222,16,01,00,000,,02,07,316,*4C
$GLGSV,2,1,08,66,60,054,14,82,04,274,14,75,06,026,22,65,19,112,18*66
$GLGSV,2,2,08,83,01,323,10,67,34,331,16,78,05,202,,77,58,192,*69
$GPGSA,A,3,03,06,07,09,16,22,23,26,,,,,1.3,1.0,0.8*30
$GPVTG,144.1,T,144.1,M,30.9,N,57.2,K,A*29
$GPRMC,061750,A,3212.261219,N,03457.449845,E,30.9,144.1,100416,3.0,E,A*2D
$GPGGA,061750,3212.261219,N,03457.449845,E,1,08,1.0,99.0,M,19.0,M,,*7E
$GPGSV,3,1,11,03,46,132,15,06,32,278,20,07,51,227,18,09,55,330,14*77
$GPGSV,3,2,11,16,27,068,17,22,12,135,18,23,55,033,22,26,11,043,17*7B
$GPGSV,3,3,11,30,21,222,15,01,00,000,,02,07,316,*4F
$GLGSV,2,1,08,66,60,054,15,82,04,274,14,75,06,026,22,65,19,112,17*68
$GLGSV,2,2,08,83,01,323,10,67,34,331,15,78,05,202,,77,58,192,*6A
$GPGSA,A,3,03,06,07,09,16,22,23,26,30,,,,1.1,0.8,0.7*37
$GPVTG,147.3,T,147.3,M,31.5,N,58.4,K,A*2D
$GPRMC,061751,A,3212.257875,N,03457.458392,E,31.5,147.3,100416,3.0,E,A*24
$GPGGA,061751,3212.257875,N,03457.458392,E,1,09,0.8,111.0,M,19.0,M,,*42
$GPGSV,3,1,11,03,46,132,21,06,32,278,14,07,51,227,18,09,55,330,15*76
$GPGSV,3,2,11,16,27,068,17,22,12,135,23,23,55,033,22,26,11,043,16*72
$GPGSV,3,3,11,30,21,222,14,01,00,000,,02,07,316,*4E
$GLGSV,2,1,08,66,60,054,16,82,04,274,14,77,58,192,14,75,06,026,22*66
$GLGSV,2,2,08,65,19,112,17,83,01,323,10,67,34,331,14,78,05,202,*63
$GPGSA,A,3,03,06,07,09,16,22,23,26,30,,,,1.1,0.8,0.7*37
$GPVTG,149.8,T,149.8,M,29.9,N,55.3,K,A*22
$GPRMC,061752,A,3212.252079,N,03457.460876,E,29.9,149.8,100416,3.0,E,A*2C
$GPGGA,061752,3212.252079,N,03457.460876,E,1,09,0.8,105.0,M,19.0,M,,*4F
$GPGSV,3,1,11,03,46,132,19,06,32,278,14,07,51,227,17,09,55,330,15*72
$GPGSV,3,2,11,16,27,068,17,22,12,135,21,23,55,033,15,26,11,043,16*74
$GPGSV,3,3,11,30,21,222,15,01,00,000,,02,07,316,*4F
$GLGSV,2,1,08,66,60,054,15,82,04,274,13,77,58,192,12,75,06,026,22*64
$GLGSV,2,2,08,65,19,112,17,83,01,323,10,67,34,331,14,78,05,202,*63
$GPGSA,A,3,03,06,07,09,16,22,23,26,30,,,,1.1,0.8,0.7*37
$GPVTG,151.5,T,151.5,M,28.7,N,53.2,K,A*2A
$GPRMC,061753,A,3212.244949,N,03457.465724,E,28.7,151.5,100416,3.0,E,A*26
$GPGGA,061753,3212.244949,N,03457.465724,E,1,09,0.8,108.0,M,19.0,M,,*43
$GPGSV,3,1,11,02,07,316,12,03,46,132,21,06,32,278,19,07,51,227,17*7B
$GPGSV,3,2,11,09,55,330,19,16,27,068,17,22,12,135,21,23,55,033,22*75
$GPGSV,3,3,11,26,11,043,16,30,21,222,15,01,00,000,*4A
$GLGSV,2,1,08,66,60,054,15,82,04,274,15,77,58,192,13,75,06,026,22*63
$GLGSV,2,2,08,65,19,112,17,83,01,323,10,67,34,331,14,78,05,202,*63
$GPGSA,A,3,02,03,06,07,09,16,22,23,26,30,,,1.1,0.8,0.8*3A
$GPVTG,163.5,T,163.5,M,27.4,N,50.8,K,A*2F
$GPRMC,061754,A,3212.237439,N,03457.455913,E,27.4,163.5,100416,3.0,E,A*2B
$GPGGA,061754,3212.237439,N,03457.455913,E,1,10,0.8,104.0,M,19.0,M,,*47
$GPGSV,3,1,11,02,07,316,12,03,46,132,21,06,32,278,19,07,51,227,17*7B
$GPGSV,3,2,11,09,55,330,23,16,27,068,17,22,12,135,18,23,55,033,20*74
$GPGSV,3,3,11,26,11,043,16,30,21,222,15,01,00,000,*4A
$GLGSV,2,1,08,66,60,054,16,82,04,274,15,77,58,192,13,75,06,026,11*60
$GLGSV,2,2,08,65,19,112,17,83,01,323,12,67,34,331,15,78,05,202,*60
$GPGSA,A,3,02,03,06,07,09,16,22,23,26,30,,,1.2,0.9,0.8*38
$GPVTG,164.9,T,164.9,M,27.4,N,50.7,K,A*20
$GPRMC,061755,A,3212.229167,N,03457.458414,E,27.4,164.9,100416,3.0,E,A*27
$GPGGA,061755,3212.229167,N,03457.458414,E,1,10,0.9,102.0,M,19.0,M,,*47
$GPGSV,3,1,11,02,07,316,12,03,46,132,21,06,32,278,18,07,51,227,16*7B
$GPGSV,3,2,11,09,55,330,22,16,27,068,17,22,12,135,18,23,55,033,20*75
$GPGSV,3,3,11,26,11,043,15,30,21,222,15,01,00,000,*49
$GLGSV,2,1,08,66,60,054,16,82,04,274,15,77,58,192,13,75,06,026,11*60
$GLGSV,2,2,08,65,19,112,17,83,01,323,12,67,34,331,17,78,05,202,*62
$GPGSA,A,3,02,03,06,07,09,16,22,23,26,30,,,1.3,1.0,0.9*30
$GPVTG,169.7,T,169.7,M,25.8,N,47.7,K,A*28
$GPRMC,061756,A,3212.221471,N,03457.459259,E,25.8,169.7,100416,3.0,E,A*2D
$GPGGA,061756,3212.221471,N,03457.459259,E,1,10,1.0,102.0,M,19.0,M,,*48
$GPGSV,3,1,11,02,07,316,12,03,46,132,24,06,32,278,20,07,51,227,16*75
$GPGSV,3,2,11,09,55,330,22,16,27,068,17,22,12,135,18,23,55,033,20*75
$GPGSV,3,3,11,26,11,043,15,30,21,222,15,01,00,000,*49
$GLGSV,2,1,08,66,60,054,16,82,04,274,15,77,58,192,13,75,06,026,16*67
$GLGSV,2,2,08,65,19,112,17,83,01,323,15,67,34,331,17,78,05,202,*65
$GPGSA,A,3,02,03,06,07,09,16,22,23,26,30,,,1.4,1.1,0.9*36
$GPVTG,176.7,T,176.7,M,26.7,N,49.5,K,A*28
$GPRMC,061757,A,3212.212818,N,03457.457906,E,26.7,176.7,100416,3.0,E,A*22
$GPGGA,061757,3212.212818,N,03457.457906,E,1,10,1.1,103.0,M,19.0,M,,*45
$GPGSV,3,1,11,02,07,316,12,03,46,132,20,06,32,278,18,07,51,227,16*7A
$GPGSV,3,2,11,09,55,330,17,16,27,068,17,22,12,135,18,23,55,033,15*75
$GPGSV,3,3,11,26,11,043,15,30,21,222,15,01,00,000,*49
$GLGSV,2,1,08,66,60,054,22,82,04,274,15,77,58,192,13,75,06,026,16*60
$GLGSV,2,2,08,65,19,112,17,83,01,323,15,67,34,331,17,78,05,202,*65
$GPGSA,A,3,02,03,06,07,09,16,22,23,26,30,,,1.3,1.0,0.8*31
$GPVTG,183.2,T,183.2,M,28.3,N,52.3,K,A*2E
$GPRMC,061758,A,3212.205128,N,03457.458254,E,28.3,183.2,100416,3.0,E,A*27
$GPGGA,061758,3212.205128,N,03457.458254,E,1,10,1.0,104.0,M,19.0,M,,*43
$GPGSV,3,1,11,02,07,316,12,03,46,132,20,06,32,278,18,07,51,227,16*7A
$GPGSV,3,2,11,09,55,330,20,16,27,068,17,22,12,135,18,23,55,033,20*77
$GPGSV,3,3,11,26,11,043,15,30,21,222,19,01,00,000,*45
$GLGSV,2,1,08,66,60,054,22,82,04,274,15,77,58,192,13,75,06,026,16*60
$GLGSV,2,2,08,65,19,112,17,83,01,323,15,67,34,331,17,78,05,202,*65
$GPGSA,A,3,02,03,06,07,09,16,22,23,26,30,,,3.1,3.0,1.0*3A
$GPVTG,187.1,T,187.1,M,29.7,N,55.0,K,A*2F
$GPRMC,061759,A,3212.197543,N,03457.457357,E,29.7,187.1,100416,3.0,E,A*28
$GPGGA,061759,3212.197543,N,03457.457357,E,1,10,3.0,104.0,M,19.0,M,,*4C
$GPGSV,3,1,11,02,07,316,12,03,46,132,20,06,32,278,18,07,51,227,16*7A
$GPGSV,3,2,11,09,55,330,26,16,27,068,17,22,12,135,15,23,55,033,23*7F
$GPGSV,3,3,11,26,11,043,15,30,21,222,19,01,00,000,*45
$GLGSV,2,1,08,66,60,054,22,82,04,274,15,77,58,192,13,75,06,026,16*60
$GLGSV,2,2,08,65,19,112,17,83,01,323,15,67,34,331,17,78,05,202,*65
$GPGSA,A,3,02,03,06,07,09,16,22,23,26,30,,,3.2,3.1,1.0*38
$GPVTG,188.6,T,188.6,M,28.8,N,53.3,K,A*24
$GPRMC,061800,A,3212.190778,N,03457.455704,E,28.8,188.6,100416,3.0,E,A*20
$GPGGA,061800,3212.190778,N,03457.455704,E,1,10,3.1,106.0,M,19.0,M,,*41
$GPGSV,3,1,11,02,07,316,12,03,46,132,20,06,32,278,18,07,51,227,16*7A
$GPGSV,3,2,11,09,55,330,25,16,27,068,17,22,12,135,15,23,55,033,24*7B
$GPGSV,3,3,11,26,11,043,15,30,21,222,17,01,00,000,*4B
$GLGSV,2,1,08,66,60,054,22,82,04,274,15,77,58,192,13,75,06,026,16*60
$GLGSV,2,2,08,65,19,112,17,83,01,323,15,67,34,331,17,78,05,202,*65
$GPGSA,A,3,02,03,06,07,09,16,22,23,26,30,,,2.7,2.5,1.0*39
$GPVTG,190.5,T,190.5,M,31.3,N,57.9,K,A*29
$GPRMC,061801,A,3212.181225,N,03457.453152,E,31.3,190.5,100416,3.0,E,A*26
$GPGGA,061801,3212.181225,N,03457.453152,E,1,10,2.5,104.0,M,19.0,M,,*49
$GPGSV,3,1,11,02,07,316,12,03,46,132,20,06,32,278,15,07,51,227,16*77
$GPGSV,3,2,11,09,55,330,26,16,27,068,13,22,12,135,15,23,55,033,24*7C
$GPGSV,3,3,11,26,11,043,15,30,21,222,20,01,00,000,*4F
$GLGSV,2,1,08,66,60,054,15,82,04,274,15,77,58,192,13,75,06,026,16*64
$GLGSV,2,2,08,65,19,112,17,83,01,323,15,67,34,331,17,78,05,202,*65
$GPGSA,A,3,02,03,06,07,09,16,22,23,26,30,,,1.5,1.1,1.0*3F
$GPVTG,192.1,T,192.1,M,34.3,N,63.4,K,A*26
$GPRMC,061802,A,3212.171224,N,03457.449691,E,34.3,192.1,100416,3.0,E,A*2B
$GPGGA,061802,3212.171224,N,03457.449691,E,1,10,1.1,105.0,M,19.0,M,,*41
$GPGSV,3,1,11,02,07,316,12,03,46,132,20,06,32,278,15,07,51,227,16*77
$GPGSV,3,2,11,09,55,330,25,16,27,068,13,22,12,135,20,23,55,033,24*79
$GPGSV,3,3,11,26,11,043,15,30,21,222,22,01,00,000,*4D
$GLGSV,2,1,08,66,60,054,15,82,04,274,15,77,58,192,13,75,06,026,16*64
$GLGSV,2,2,08,65,19,112,17,83,01,323,15,67,34,331,17,78,05,202,*65
$GPGSA,A,3,02,03,06,07,09,16,22,23,26,30,,,1.7,1.4,1.0*38
$GPVTG,192.7,T,192.7,M,35.3,N,65.3,K,A*26
$GPRMC,061803,A,3212.162520,N,03457.448146,E,35.3,192.7,100416,3.0,E,A*20
$GPGGA,061803,3212.162520,N,03457.448146,E,1,10,1.4,105.0,M,19.0,M,,*48
$GPGSV,3,1,11,02,07,316,12,03,46,132,20,06,32,278,15,07,51,227,13*72
$GPGSV,3,2,11,09,55,330,22,16,27,068,13,22,12,135,18,23,55,033,23*72
$GPGSV,3,3,11,26,11,043,15,30,21,222,22,01,00,000,*4D
$GLGSV,2,1,08,66,60,054,15,82,04,274,15,77,58,192,13,75,06,026,16*64
$GLGSV,2,2,08,65,19,112,17,83,01,323,15,67,34,331,17,78,05,202,*65
$GPGSA,A,3,02,03,06,07,09,16,22,23,26,30,,,1.6,1.3,1.0*3E
$GPVTG,193.6,T,193.6,M,36.5,N,67.7,K,A*25
$GPRMC,061804,A,3212.153878,N,03457.447208,E,36.5,193.6,100416,3.0,E,A*26
$GPGGA,061804,3212.153878,N,03457.447208,E,1,10,1.3,103.0,M,19.0,M,,*4A
$GPGSV,3,1,11,02,07,316,12,03,46,132,17,06,32,278,15,07,51,227,19*7C
$GPGSV,3,2,11,09,55,330,19,16,27,068,13,22,12,135,18,23,55,033,23*7A
$GPGSV,3,3,11,26,11,043,15,30,21,222,20,01,00,000,*4F
$GLGSV,2,1,08,66,60,054,15,82,04,274,12,77,58,192,13,75,06,026,16*63
$GLGSV,2,2,08,65,19,112,17,83,01,323,15,67,34,331,14,78,05,202,*66
$GPGSA,A,3,02,03,06,07,09,16,22,23,26,30,,,1.7,1.4,1.0*38
$GPVTG,193.8,T,193.8,M,37.8,N,70.1,K,A*29
$GPRMC,061805,A,3212.144845,N,03457.444551,E,37.8,193.8,100416,3.0,E,A*25
$GPGGA,061805,3212.144845,N,03457.444551,E,1,10,1.4,100.0,M,19.0,M,,*4F
$GPGSV,3,1,11,02,07,316,11,03,46,132,24,06,32,278,16,07,51,227,18*7D
$GPGSV,3,2,11,09,55,330,19,16,27,068,13,22,12,135,18,23,55,033,15*7F
$GPGSV,3,3,11,26,11,043,15,30,21,222,24,01,00,000,*4B
$GLGSV,2,1,08,66,60,054,15,82,04,274,18,77,58,192,13,75,06,026,16*69
$GLGSV,2,2,08,65,19,112,17,83,01,323,15,67,34,331,18,78,05,202,*6A
$GPGSA,A,3,02,03,06,07,09,16,22,23,26,30,,,1.5,1.1,0.9*37
$GPVTG,195.5,T,195.5,M,38.0,N,70.3,K,A*2C
$GPRMC,061806,A,3212.136366,N,03457.438909,E,38.0,195.5,100416,3.0,E,A*2F
$GPGGA,061806,3212.136366,N,03457.438909,E,1,10,1.1,92.0,M,19.0,M,,*76
$GPGSV,3,1,11,02,07,316,11,03,46,132,20,06,32,278,20,07,51,227,18*7C
$GPGSV,3,2,11,09,55,330,19,16,27,068,13,22,12,135,18,23,55,033,20*79
$GPGSV,3,3,11,26,11,043,15,30,21,222,22,01,00,000,*4D
$GLGSV,2,1,08,66,60,054,17,82,04,274,18,77,58,192,13,75,06,026,16*6B
$GLGSV,2,2,08,65,19,112,17,83,01,323,15,67,34,331,18,78,05,202,*6A
$GPGSA,A,3,02,03,06,07,09,16,22,23,26,30,,,1.7,1.4,1.0*38
$GPVTG,193.6,T,193.6,M,39.9,N,73.8,K,A*2C
$GPRMC,061807,A,3212.124751,N,03457.435560,E,39.9,193.6,100416,3.0,E,A*2E
$GPGGA,061807,3212.124751,N,03457.435560,E,1,10,1.4,91.0,M,19.0,M,,*7C
$GPGSV,3,1,11,02,07,316,11,03,46,132,22,06,32,278,19,07,51,227,18*74
$GPGSV,3,2,11,09,55,330,19,16,27,068,13,22,12,135,18,23,55,033,20*79
$GPGSV,3,3,11,26,11,043,15,30,21,222,22,01,00,000,*4D
$GLGSV,2,1,08,66,60,054,18,82,04,274,17,77,58,192,13,75,06,026,16*6B
$GLGSV,2,2,08,65,19,112,17,83,01,323,15,67,34,331,18,78,05,202,*6A
$GPGSA,A,3,02,03,06,07,09,16,22,23,26,30,,,1.5,1.2,1.0*3C
$GPVTG,193.6,T,193.6,M,41.6,N,77.1,K,A*21
$GPRMC,061808,A,3212.113673,N,03457.431840,E,41.6,193.6,100416,3.0,E,A*2F
$GPGGA,061808,3212.113673,N,03457.431840,E,1,10,1.2,90.0,M,19.0,M,,*7A
$GPGSV,3,1,11,02,07,316,11,03,46,132,22,06,32,278,19,07,51,227,18*74
$GPGSV,3,2,11,09,55,330,19,16,27,068,13,22,12,135,18,23,55,033,22*7B
$GPGSV,3,3,11,26,11,043,15,30,21,222,22,01,00,000,*4D
$GLGSV,2,1,08,66,60,054,18,82,04,274,18,77,58,192,13,75,06,026,16*64
$GLGSV,2,2,08,65,19,112,17,83,01,323,15,67,34,331,18,78,05,202,*6A
$GPGSA,A,3,02,03,06,07,09,16,22,23,26,30,,,2.2,1.9,1.0*33
$GPVTG,194.4,T,194.4,M,43.1,N,79.9,K,A*22
$GPRMC,061809,A,3212.102681,N,03457.428686,E,43.1,194.4,100416,3.0,E,A*2F
$GPGGA,061809,3212.102681,N,03457.428686,E,1,10,1.9,90.0,M,19.0,M,,*71
$GPGSV,3,1,11,02,07,316,11,03,46,132,24,06,32,278,19,07,51,227,16*7C
$GPGSV,3,2,11,09,55,330,19,16,27,068,13,22,12,135,18,23,55,033,23*7A
$GPGSV,3,3,11,26,11,043,15,30,21,222,22,01,00,000,*4D
$GLGSV,2,1,08,66,60,054,20,82,04,274,18,77,58,192,13,75,06,026,16*6F
$GLGSV,2,2,08,65,19,112,17,83,01,323,15,67,34,331,18,78,05,202,*6A
$GPGSA,A,3,02,03,06,07,09,16,22,23,26,30,,,2.1,1.8,1.0*31
$GPVTG,195.4,T,195.4,M,43.6,N,80.7,K,A*2D
$GPRMC,061810,A,3212.091118,N,03457.423747,E,43.6,195.4,100416,3.0,E,A*2A
$GPGGA,061810,3212.091118,N,03457.423747,E,1,10,1.8,87.0,M,19.0,M,,*75
$GPGSV,3,1,11,02,07,316,11,03,46,132,23,06,32,278,15,07,51,227,16*77
$GPGSV,3,2,11,09,55,330,14,16,27,068,13,22,12,135,18,23,55,033,22*76
$GPGSV,3,3,11,26,11,043,15,30,21,222,22,01,00,000,*4D
$GLGSV,2,1,08,66,60,054,21,82,04,274,18,77,58,192,13,75,06,026,16*6E
$GLGSV,2,2,08,65,19,112,17,83,01,323,15,67,34,331,18,78,05,202,*6A
$GPGSA,A,3,02,03,06,07,09,16,22,23,26,30,,,1.6,1.3,1.0*3E
$GPVTG,193.5,T,193.5,M,44.5,N,82.3,K,A*2F
$GPRMC,061811,A,3212.079274,N,03457.419998,E,44.5,193.5,100416,3.0,E,A*22
$GPGGA,061811,3212.079274,N,03457.419998,E,1,10,1.3,86.0,M,19.0,M,,*74
$GPGSV,3,1,11,02,07,316,11,03,46,132,23,06,32,278,15,07,51,227,17*76
$GPGSV,3,2,11,09,55,330,14,16,27,068,13,22,12,135,13,23,55,033,20*7F
$GPGSV,3,3,11,26,11,043,15,30,21,222,20,01,00,000,*4F
$GLGSV,2,1,08,66,60,054,20,82,04,274,18,77,58,192,10,75,06,026,16*6C
$GLGSV,2,2,08,65,19,112,17,83,01,323,15,67,34,331,16,78,05,202,*64
$GPGSA,A,3,02,03,06,07,09,16,22,23,26,30,,,1.4,1.1,0.9*36
$GPVTG,193.6,T,193.6,M,44.6,N,82.6,K,A*29
$GPRMC,061812,A,3212.067533,N,03457.416443,E,44.6,193.6,100416,3.0,E,A*2E
$GPGGA,061812,3212.067533,N,03457.416443,E,1,10,1.1,85.0,M,19.0,M,,*79
$GPGSV,3,1,11,02,07,316,11,03,46,132,23,06,32,278,15,07,51,227,17*76
$GPGSV,3,2,11,09,55,330,14,16,27,068,13,22,12,135,13,23,55,033,18*74
$GPGSV,3,3,11,26,11,043,15,30,21,222,20,01,00,000,*4F
$GLGSV,2,1,08,66,60,054,20,82,04,274,18,77,58,192,10,75,06,026,16*6C
$GLGSV,2,2,08,65,19,112,17,83,01,323,15,67,34,331,16,78,05,202,*64
$GPGSA,A,3,02,03,06,07,09,16,22,23,26,30,,,500.0,500.0,500.0*3F
$GPVTG,193.6,T,193.6,M,44.7,N,82.7,K,A*29
$GPRMC,061813,A,3212.055240,N,03457.412917,E,44.7,193.6,100416,3.0,E,A*24
$GPGGA,061813,3212.055240,N,03457.412917,E,1,10,500.0,85.0,M,19.0,M,,*77
$GPGSV,3,1,11,02,07,316,11,03,46,132,16,06,32,278,16,07,51,227,17*73
$GPGSV,3,2,11,09,55,330,17,16,27,068,13,22,12,135,16,23,55,033,17*7D
$GPGSV,3,3,11,26,11,043,15,30,21,222,20,01,00,000,*4F
$GLGSV,2,1,08,66,60,054,20,82,04,274,18,77,58,192,10,75,06,026,16*6C
$GLGSV,2,2,08,65,19,112,12,83,01,323,15,67,34,331,18,78,05,202,*6F
$GPGSA,A,3,02,03,06,07,09,16,22,23,26,30,,,1.8,1.5,0.9*3E
$GPVTG,195.4,T,195.4,M,44.5,N,82.4,K,A*28
$GPRMC,061814,A,3212.043878,N,03457.409031,E,44.5,195.4,100416,3.0,E,A*24
$GPGGA,061814,3212.043878,N,03457.409031,E,1,10,1.5,82.0,M,19.0,M,,*77
$GPGSV,3,1,11,02,07,316,11,03,46,132,16,06,32,278,18,07,51,227,15*7F
$GPGSV,3,2,11,09,55,330,17,16,27,068,13,22,12,135,16,23,55,033,17*7D
$GPGSV,3,3,11,26,11,043,15,30,21,222,20,01,00,000,*4F
$GLGSV,2,1,08,66,60,054,15,82,04,274,13,77,58,192,10,75,06,026,16*61
$GLGSV,2,2,08,65,19,112,12,83,01,323,15,67,34,331,18,78,05,202,*6F
$GPGSA,A,3,02,03,06,07,09,16,22,23,26,30,,,2.9,2.7,1.0*35
$GPVTG,195.1,T,195.1,M,44.7,N,82.8,K,A*26
$GPRMC,061815,A,3212.031967,N,03457.405404,E,44.7,195.1,100416,3.0,E,A*26
$GPGGA,061815,3212.031967,N,03457.405404,E,1,10,2.7,81.0,M,19.0,M,,*70
$GPGSV,3,1,11,02,07,316,11,03,46,132,16,06,32,278,18,07,51,227,15*7F
$GPGSV,3,2,11,09,55,330,17,16,27,068,13,22,12,135,16,23,55,033,17*7D
$GPGSV,3,3,11,26,11,043,15,30,21,222,20,01,00,000,*4F
$GLGSV,2,1,08,66,60,054,15,82,04,274,13,77,58,192,10,75,06,026,16*61
$GLGSV,2,2,08,65,19,112,12,83,01,323,15,67,34,331,18,78,05,202,*6F
$GPGSA,A,3,02,03,06,07,09,16,22,23,26,30,,,500.0,500.0,500.0*3F
$GPVTG,195.9,T,195.9,M,44.6,N,82.7,K,A*28
$GPRMC,061816,A,3212.020023,N,03457.401489,E,44.6,195.9,100416,3.0,E,A*24
$GPGGA,061816,3212.020023,N,03457.401489,E,1,10,500.0,81.0,M,19.0,M,,*7B
$GPGSV,3,1,11,02,07,316,11,03,46,132,15,06,32,278,18,07,51,227,15*7C
$GPGSV,3,2,11,09,55,330,17,16,27,068,16,22,12,135,14,23,55,033,14*79
$GPGSV,3,3,11,30,21,222,20,01,00,000,,26,11,043,*4B
$GLGSV,2,1,08,66,60,054,15,82,04,274,13,77,58,192,10,75,06,026,16*61
$GLGSV,2,2,08,65,19,112,16,83,01,323,15,67,34,331,16,78,05,202,*65
$GPGSA,A,3,02,03,06,07,09,16,22,23,30,,,,2.1,1.9,0.9*3C
$GPVTG,194.4,T,194.4,M,45.4,N,84.0,K,A*2A
$GPRMC,061817,A,3212.007327,N,03457.399007,E,45.4,194.4,100416,3.0,E,A*2C
$GPGGA,061817,3212.007327,N,03457.399007,E,1,09,1.9,79.0,M,19.0,M,,*7E
$GPGSV,3,1,11,02,07,316,11,03,46,132,19,06,32,278,14,07,51,227,15*7C
$GPGSV,3,2,11,09,55,330,15,16,27,068,16,22,12,135,14,23,55,033,14*7B
$GPGSV,3,3,11,30,21,222,20,01,00,000,,26,11,043,*4B
$GLGSV,2,1,08,66,60,054,16,82,04,274,13,77,58,192,10,75,06,026,16*62
$GLGSV,2,2,08,65,19,112,16,83,01,323,15,67,34,331,18,78,05,202,*6B
$GPGSA,A,3,02,03,06,07,09,16,22,23,30,,,,2.2,2.0,1.0*3D
$GPVTG,194.1,T,194.1,M,44.8,N,83.0,K,A*20
$GPRMC,061818,A,3211.994809,N,03457.394789,E,44.8,194.1,100416,3.0,E,A*20
$GPGGA,061818,3211.994809,N,03457.394789,E,1,09,2.0,79.0,M,19.0,M,,*70
$GPGSV,3,1,11,02,07,316,11,03,46,132,22,06,32,278,14,07,51,227,15*74
$GPGSV,3,2,11,09,55,330,15,16,27,068,16,22,12,135,14,23,55,033,17*78
$GPGSV,3,3,11,30,21,222,20,01,00,000,,26,11,043,*4B
$GLGSV,2,1,08,66,60,054,19,82,04,274,13,77,58,192,10,75,06,026,16*6D
$GLGSV,2,2,08,65,19,112,16,83,01,323,15,67,34,331,18,78,05,202,*6B
$GPGSA,A,3,02,03,06,07,09,16,22,23,30,,,,37.0,37.0,1.0*3F
$GPVTG,195.9,T,195.9,M,43.0,N,79.7,K,A*2D
$GPRMC,061819,A,3211.985069,N,03457.391457,E,43.0,195.9,100416,3.0,E,A*2C
$GPGGA,061819,3211.985069,N,03457.391457,E,1,09,37.0,79.0,M,19.0,M,,*4C
$GPGSV,3,1,11,02,07,316,11,03,46,132,19,06,32,278,14,07,51,227,15*7C
$GPGSV,3,2,11,09,55,330,15,16,27,068,16,22,12,135,14,23,55,033,18*77
$GPGSV,3,3,11,30,21,222,20,01,00,000,,26,11,043,*4B
$GLGSV,2,1,08,66,60,054,19,82,04,274,13,77,58,192,10,75,06,026,10*6B
$GLGSV,2,2,08,65,19,112,16,83,01,323,15,67,34,331,18,78,05,202,*6B
$GPGSA,A,3,02,03,06,07,09,16,22,23,30,,,,9.6,9.5,1.0*3C
$GPVTG,198.0,T,198.0,M,44.8,N,82.9,K,A*28
$GPRMC,061820,A,3211.973250,N,03457.386919,E,44.8,198.0,100416,3.0,E,A*2D
$GPGGA,061820,3211.973250,N,03457.386919,E,1,09,9.5,78.0,M,19.0,M,,*7F
$GPGSV,3,1,11,02,07,316,11,03,46,132,19,06,32,278,14,07,51,227,15*7C
$GPGSV,3,2,11,09,55,330,15,16,27,068,16,22,12,135,14,23,55,033,18*77
$GPGSV,3,3,11,30,21,222,13,01,00,000,,26,11,043,*4B
$GLGSV,2,1,07,66,60,054,19,82,04,274,13,77,58,192,10,75,06,026,10*64
$GLGSV,2,2,07,65,19,112,16,67,34,331,18,78,05,202,*58
$GPGSA,A,3,02,03,06,07,09,16,22,23,30,,,,500.0,500.0,500.0*3B
$GPVTG,200.5,T,200.5,M,44.8,N,83.0,K,A*20
$GPRMC,061821,A,3211.961199,N,03457.381934,E,44.8,200.5,100416,3.0,E,A*26
$GPGGA,061821,3211.961199,N,03457.381934,E,1,09,500.0,77.0,M,19.0,M,,*75
$GPGSV,3,1,11,02,07,316,11,03,46,132,19,06,32,278,14,07,51,227,15*7C
$GPGSV,3,2,11,09,55,330,15,16,27,068,16,22,12,135,14,23,55,033,18*77
$GPGSV,3,3,11,30,21,222,13,01,00,000,,26,11,043,*4B
$GLGSV,2,1,08,66,60,054,19,82,04,274,13,77,58,192,10,75,06,026,10*6B
$GLGSV,2,2,08,65,19,112,13,67,34,331,18,78,05,202,,83,01,323,*6A
$GPGSA,A,3,02,03,06,07,09,16,22,23,30,,,,500.0,500.0,500.0*3B
$GPVTG,200.4,T,200.4,M,44.8,N,83.0,K,A*20
$GPRMC,061822,A,3211.949424,N,03457.377103,E,44.8,200.4,100416,3.0,E,A*28
$GPGGA,061822,3211.949424,N,03457.377103,E,1,09,500.0,76.0,M,19.0,M,,*7B
$GPGSV,3,1,11,02,07,316,11,03,46,132,14,06,32,278,13,07,51,227,15*76
$GPGSV,3,2,11,09,55,330,15,16,27,068,16,22,12,135,14,23,55,033,18*77
$GPGSV,3,3,11,30,21,222,13,01,00,000,,26,11,043,*4B
$GLGSV,2,1,08,66,60,054,19,82,04,274,13,77,58,192,12,75,06,026,10*69
$GLGSV,2,2,08,65,19,112,19,67,34,331,18,78,05,202,,83,01,323,*60
$GPGSA,A,3,02,03,06,07,09,16,22,23,30,,,,5.9,5.8,1.0*3E
$GPVTG,199.3,T,199.3,M,44.7,N,82.8,K,A*26
$GPRMC,061823,A,3211.938188,N,03457.370252,E,44.7,199.3,100416,3.0,E,A*27
$GPGGA,061823,3211.938188,N,03457.370252,E,1,09,5.8,76.0,M,19.0,M,,*77
$GPGSV,3,1,11,02,07,316,11,03,46,132,14,06,32,278,13,07,51,227,14*77
$GPGSV,3,2,11,09,55,330,14,16,27,068,16,22,12,135,14,23,55,033,14*7A
$GPGSV,3,3,11,30,21,222,17,01,00,000,,26,11,043,*4F
$GLGSV,2,1,08,66,60,054,17,82,04,274,13,77,58,192,12,75,06,026,10*67
$GLGSV,2,2,08,65,19,112,19,67,34,331,18,78,05,202,,83,01,323,*60
$GPGSA,A,3,02,03,06,07,09,16,22,23,30,,,,2.6,2.4,1.0*3D
$GPVTG,199.8,T,199.8,M,44.6,N,82.5,K,A*2A
$GPRMC,061824,A,3211.926856,N,03457.366469,E,44.6,199.8,100416,3.0,E,A*26
$GPGGA,061824,3211.926856,N,03457.366469,E,1,09,2.4,75.0,M,19.0,M,,*74
$GPGSV,3,1,11,03,46,132,14,06,32,278,13,07,51,227,14,09,55,330,22*7F
$GPGSV,3,2,11,16,27,068,16,22,12,135,14,23,55,033,14,30,21,222,17*72
$GPGSV,3,3,11,01,00,000,,02,07,316,,26,11,043,*4A
$GLGSV,2,1,08,66,60,054,17,82,04,274,13,77,58,192,16,75,06,026,10*63
$GLGSV,2,2,08,65,19,112,19,67,34,331,14,78,05,202,,83,01,323,*6C
$GPGSA,A,3,03,06,07,09,16,22,23,30,,,,,26.6,26.6,1.0*3D
$GPVTG,201.2,T,201.2,M,44.2,N,81.9,K,A*21
$GPRMC,061825,A,3211.915685,N,03457.356920,E,44.2,201.2,100416,3.0,E,A*28
$GPGGA,061825,3211.915685,N,03457.356920,E,1,08,26.6,78.0,M,19.0,M,,*4E
$GPGSV,3,1,11,03,46,132,14,06,32,278,14,07,51,227,14,09,55,330,19*70
$GPGSV,3,2,11,16,27,068,16,22,12,135,14,23,55,033,14,30,21,222,17*72
$GPGSV,3,3,11,01,00,000,,02,07,316,,26,11,043,*4A
$GLGSV,2,1,08,66,60,054,17,82,04,274,13,77,58,192,16,75,06,026,10*63
$GLGSV,2,2,08,65,19,112,15,67,34,331,14,78,05,202,,83,01,323,*60
$GPGSA,A,3,03,06,07,09,16,22,23,30,,,,,1.8,1.6,1.0*33
$GPVTG,203.3,T,203.3,M,43.7,N,80.9,K,A*22
$GPRMC,061826,A,3211.903432,N,03457.348508,E,43.7,203.3,100416,3.0,E,A*2A
$GPGGA,061826,3211.903432,N,03457.348508,E,1,08,1.6,77.0,M,19.0,M,,*77
$GPGSV,3,1,11,03,46,132,14,06,32,278,14,07,51,227,14,09,55,330,21*7B
$GPGSV,3,2,11,16,27,068,16,22,12,135,14,23,55,033,14,30,21,222,17*72
$GPGSV,3,3,11,01,00,000,,02,07,316,,26,11,043,*4A
$GLGSV,2,1,08,66,60,054,17,82,04,274,13,77,58,192,16,75,06,026,10*63
$GLGSV,2,2,08,65,19,112,15,67,34,331,14,78,05,202,,83,01,323,*60
$GPGSA,A,3,03,06,07,09,16,22,23,30,,,,,500.0,500.0,500.0*39
$GPVTG,197.1,T,197.1,M,43.0,N,79.6,K,A*2C
$GPRMC,061827,A,3211.891886,N,03457.343718,E,43.0,197.1,100416,3.0,E,A*21
$GPGGA,061827,3211.891886,N,03457.343718,E,1,08,500.0,77.0,M,19.0,M,,*75
$GPGSV,3,1,11,03,46,132,14,06,32,278,14,07,51,227,14,09,55,330,23*79
$GPGSV,3,2,11,16,27,068,16,22,12,135,14,23,55,033,14,30,21,222,18*7D
$GPGSV,3,3,11,01,00,000,,02,07,316,,26,11,043,*4A
$GLGSV,2,1,08,66,60,054,17,82,04,274,13,77,58,192,16,75,06,026,12*61
$GLGSV,2,2,08,65,19,112,15,67,34,331,14,78,05,202,,83,01,323,*60
$GPGSA,A,3,03,06,07,09,16,22,23,30,,,,,4.4,4.3,1.0*3A
$GPVTG,196.4,T,196.4,M,43.3,N,80.2,K,A*2D
$GPRMC,061828,A,3211.882510,N,03457.341474,E,43.3,196.4,100416,3.0,E,A*22
$GPGGA,061828,3211.882510,N,03457.341474,E,1,08,4.3,75.0,M,19.0,M,,*71
$GPGSV,3,1,11,01,00,000,14,03,46,132,14,06,32,278,14,07,51,227,14*75
$GPGSV,3,2,11,09,55,330,23,16,27,068,16,22,12,135,11,23,55,033,14*7B
$GPGSV,3,3,11,30,21,222,20,02,07,316,,26,11,043,*4B
$GLGSV,2,1,08,66,60,054,17,82,04,274,13,77,58,192,16,75,06,026,12*61
$GLGSV,2,2,08,65,19,112,15,67,34,331,14,78,05,202,,83,01,323,*60
$GPGSA,A,3,01,03,06,07,09,16,22,23,30,,,,1.9,1.6,1.0*33
$GPVTG,195.4,T,195.4,M,42.6,N,78.9,K,A*25
$GPRMC,061829,A,3211.871550,N,03457.338914,E,42.6,195.4,100416,3.0,E,A*29
$GPGGA,061829,3211.871550,N,03457.338914,E,1,09,1.6,75.0,M,19.0,M,,*7C
$GPGSV,3,1,11,01,00,000,14,03,46,132,14,06,32,278,14,07,51,227,14*75
$GPGSV,3,2,11,09,55,330,20,16,27,068,16,22,12,135,11,23,55,033,14*78
$GPGSV,3,3,11,30,21,222,20,02,07,316,,26,11,043,*4B
$GLGSV,2,1,08,78,05,202,13,66,60,054,14,82,04,274,13,77,58,192,14*6B
$GLGSV,2,2,08,75,06,026,16,65,19,112,15,67,34,331,13,83,01,323,*6A
$GPGSA,A,3,01,03,06,07,09,16,22,23,30,,,,1.7,1.5,0.8*37
$GPVTG,198.7,T,198.7,M,43.1,N,79.8,K,A*23
$GPRMC,061830,A,3211.860861,N,03457.332725,E,43.1,198.7,100416,3.0,E,A*20
$GPGGA,061830,3211.860861,N,03457.332725,E,1,09,1.5,77.0,M,19.0,M,,*7C
$GPGSV,3,1,11,01,00,000,15,03,46,132,14,06,32,278,14,07,51,227,14*74
$GPGSV,3,2,11,09,55,330,20,16,27,068,16,22,12,135,17,23,55,033,14*7E
$GPGSV,3,3,11,30,21,222,22,02,07,316,,26,11,043,*49
$GLGSV,2,1,08,78,05,202,13,66,60,054,14,82,04,274,15,77,58,192,14*6D
$GLGSV,2,2,08,75,06,026,16,65,19,112,15,67,34,331,13,83,01,323,*6A
$GPGSA,A,3,01,03,06,07,09,16,22,23,30,,,,1.9,1.6,1.0*33
$GPVTG,199.4,T,199.4,M,43.2,N,80.1,K,A*2F
$GPRMC,061831,A,3211.849165,N,03457.327650,E,43.2,199.4,100416,3.0,E,A*21
$GPGGA,061831,3211.849165,N,03457.327650,E,1,09,1.6,75.0,M,19.0,M,,*7D
$GPGSV,3,1,11,01,00,000,14,03,46,132,14,06,32,278,14,07,51,227,19*78
$GPGSV,3,2,11,09,55,330,20,16,27,068,16,22,12,135,17,23,55,033,14*7E
$GPGSV,3,3,11,30,21,222,21,02,07,316,,26,11,043,*4A
$GLGSV,2,1,08,78,05,202,13,66,60,054,20,82,04,274,15,77,58,192,14*6A
$GLGSV,2,2,08,75,06,026,16,65,19,112,14,67,34,331,13,83,01,323,*6B
$GPGSA,A,3,01,03,06,07,09,16,22,23,30,,,,17.7,17.6,1.0*3D
$GPVTG,197.3,T,197.3,M,44.0,N,81.5,K,A*2F
$GPRMC,061832,A,3211.837932,N,03457.321148,E,44.0,197.3,100416,3.0,E,A*25
$GPGGA,061832,3211.837932,N,03457.321148,E,1,09,17.6,75.0,M,19.0,M,,*42
$GPGSV,3,1,11,01,00,000,14,02,07,316,14,03,46,132,15,06,32,278,13*76
$GPGSV,3,2,11,07,51,227,19,09,55,330,18,16,27,068,16,22,12,135,17*7D
$GPGSV,3,3,11,23,55,033,12,30,21,222,21,26,11,043,*49
$GLGSV,2,1,08,78,05,202,13,66,60,054,20,82,04,274,15,77,58,192,14*6A
$GLGSV,2,2,08,75,06,026,14,65,19,112,14,67,34,331,13,83,01,323,*69
$GPGSA,A,3,01,02,03,06,07,09,16,22,23,30,,,1.6,1.4,0.9*34
$GPVTG,195.2,T,195.2,M,43.7,N,81.0,K,A*2A
$GPRMC,061833,A,3211.826950,N,03457.315971,E,43.7,195.2,100416,3.0,E,A*26
$GPGGA,061833,3211.826950,N,03457.315971,E,1,10,1.4,74.0,M,19.0,M,,*7E
$GPGSV,3,1,11,01,00,000,14,02,07,316,15,03,46,132,17,06,32,278,13*75
$GPGSV,3,2,11,07,51,227,19,09,55,330,20,16,27,068,16,22,12,135,17*76
$GPGSV,3,3,11,23,55,033,17,30,21,222,20,26,11,043,*4D
$GLGSV,2,1,08,78,05,202,16,66,60,054,20,82,04,274,15,77,58,192,14*6F
$GLGSV,2,2,08,75,06,026,19,65,19,112,14,67,34,331,15,83,01,323,*62
$GPGSA,A,3,01,02,03,06,07,09,16,22,23,30,,,1.3,1.0,0.8*34
$GPVTG,191.6,T,191.6,M,43.5,N,80.6,K,A*2F
$GPRMC,061834,A,3211.817848,N,03457.314993,E,43.5,191.6,100416,3.0,E,A*24
$GPGGA,061834,3211.817848,N,03457.314993,E,1,10,1.0,63.0,M,19.0,M,,*7C
$GPGSV,3,1,11,01,00,000,14,02,07,316,14,03,46,132,19,06,32,278,19*70
$GPGSV,3,2,11,07,51,227,19,09,55,330,20,16,27,068,16,22,12,135,14*75
$GPGSV,3,3,11,23,55,033,17,30,21,222,22,26,11,043,*4F
$GLGSV,2,1,08,78,05,202,15,66,60,054,16,82,04,274,15,77,58,192,14*69
$GLGSV,2,2,08,75,06,026,19,65,19,112,14,67,34,331,15,83,01,323,*62
$GPGSA,A,3,01,02,03,06,07,09,16,22,23,30,,,1.3,1.0,0.9*35
$GPVTG,191.0,T,191.0,M,43.3,N,80.3,K,A*2C
$GPRMC,061835,A,3211.806773,N,03457.310066,E,43.3,191.0,100416,3.0,E,A*25
$GPGGA,061835,3211.806773,N,03457.310066,E,1,10,1.0,61.0,M,19.0,M,,*7F
$GPGSV,3,1,11,01,00,000,14,02,07,316,14,03,46,132,21,06,32,278,19*7B
$GPGSV,3,2,11,07,51,227,19,09,55,330,19,16,27,068,16,22,12,135,14*7F
$GPGSV,3,3,11,23,55,033,17,30,21,222,19,26,11,043,*47
$GLGSV,2,1,08,78,05,202,14,66,60,054,19,82,04,274,15,77,58,192,14*67
$GLGSV,2,2,08,75,06,026,19,65,19,112,14,67,34,331,15,83,01,323,*62
$GPGSA,A,3,01,02,03,06,07,09,16,22,23,30,,,1.5,1.2,0.9*31
$GPVTG,190.2,T,190.2,M,43.1,N,79.9,K,A*22
$GPRMC,061836,A,3211.794787,N,03457.306002,E,43.1,190.2,100416,3.0,E,A*2D
$GPGGA,061836,3211.794787,N,03457.306002,E,1,10,1.2,59.0,M,19.0,M,,*7F
$GPGSV,3,1,11,01,00,000,14,02,07,316,13,03,46,132,20,06,32,278,15*71
$GPGSV,3,2,11,07,51,227,15,09,55,330,19,16,27,068,16,22,12,135,14*73
$GPGSV,3,3,11,23,55,033,22,30,21,222,23,26,11,043,*48
$GLGSV,2,1,08,78,05,202,14,66,60,054,19,82,04,274,15,77,58,192,14*67
$GLGSV,2,2,08,75,06,026,19,65,19,112,14,67,34,331,15,83,01,323,*62
$GPGSA,A,3,01,02,03,06,07,09,16,22,23,30,,,1.5,1.1,0.9*32
$GPVTG,188.7,T,188.7,M,41.9,N,77.5,K,A*2A
$GPRMC,061837,A,3211.781271,N,03457.308449,E,41.9,188.7,100416,3.0,E,A*27
$GPGGA,061837,3211.781271,N,03457.308449,E,1,10,1.1,62.0,M,19.0,M,,*78
$GPGSV,3,1,11,01,00,000,14,02,07,316,13,03,46,132,20,06,32,278,17*73
$GPGSV,3,2,11,07,51,227,20,09,55,330,19,16,27,068,16,22,12,135,15*74
$GPGSV,3,3,11,23,55,033,24,30,21,222,22,26,11,043,*4F
$GLGSV,2,1,08,78,05,202,14,66,60,054,19,82,04,274,15,77,58,192,14*67
$GLGSV,2,2,08,75,06,026,19,65,19,112,14,67,34,331,14,83,01,323,*63
$GPGSA,A,3,01,02,03,06,07,09,16,22,23,30,,,1.3,1.0,0.8*34
$GPVTG,190.0,T,190.0,M,41.8,N,77.4,K,A*2A
$GPRMC,061838,A,3211.769134,N,03457.304198,E,41.8,190.0,100416,3.0,E,A*26
$GPGGA,061838,3211.769134,N,03457.304198,E,1,10,1.0,61.0,M,19.0,M,,*74
$GPGSV,3,1,11,01,00,000,14,02,07,316,13,03,46,132,17,06,32,278,19*79
$GPGSV,3,2,11,07,51,227,20,09,55,330,19,16,27,068,16,22,12,135,15*74
$GPGSV,3,3,11,23,55,033,22,30,21,222,21,26,11,043,*4A
$GLGSV,2,1,08,78,05,202,14,66,60,054,19,82,04,274,15,77,58,192,14*67
$GLGSV,2,2,08,75,06,026,19,65,19,112,14,67,34,331,14,83,01,323,*63
$GPGSA,A,3,01,02,03,06,07,09,16,22,23,30,,,1.8,1.5,1.0*33
$GPVTG,191.3,T,191.3,M,41.8,N,77.5,K,A*2B
$GPRMC,061839,A,3211.757293,N,03457.300778,E,41.8,191.3,100416,3.0,E,A*2A
$GPGGA,061839,3211.757293,N,03457.300778,E,1,10,1.5,61.0,M,19.0,M,,*7F
$GPGSV,3,1,11,01,00,000,14,02,07,316,13,03,46,132,17,06,32,278,19*79
$GPGSV,3,2,11,07,51,227,20,09,55,330,16,16,27,068,16,22,12,135,15*7B
$GPGSV,3,3,11,23,55,033,21,30,21,222,19,26,11,043,*42
$GLGSV,2,1,08,78,05,202,14,66,60,054,19,82,04,274,15,77,58,192,14*67
$GLGSV,2,2,08,75,06,026,19,65,19,112,14,67,34,331,18,83,01,323,*6F
$GPGSA,A,3,01,02,03,06,07,09,16,22,23,30,,,1.6,1.3,1.0*3B
$GPVTG,196.1,T,196.1,M,41.1,N,76.1,K,A*27
$GPRMC,061840,A,3211.747987,N,03457.297616,E,41.1,196.1,100416,3.0,E,A*21
$GPGGA,061840,3211.747987,N,03457.297616,E,1,10,1.3,59.0,M,19.0,M,,*75
$GPGSV,3,1,11,01,00,000,14,02,07,316,13,03,46,132,17,06,32,278,19*79
$GPGSV,3,2,11,07,51,227,20,09,55,330,16,22,12,135,15,23,55,033,17*77
$GPGSV,3,3,11,30,21,222,19,16,27,068,,26,11,043,*4C
$GLGSV,2,1,08,78,05,202,14,66,60,054,19,82,04,274,15,77,58,192,14*67
$GLGSV,2,2,08,75,06,026,19,65,19,112,14,67,34,331,19,83,01,323,*6E
$GPGSA,A,3,01,02,03,06,07,09,22,23,30,,,,2.7,2.5,1.0*3B
$GPVTG,201.8,T,201.8,M,40.5,N,75.0,K,A*20
$GPRMC,061841,A,3211.737316,N,03457.293592,E,40.5,201.8,100416,3.0,E,A*2F
$GPGGA,061841,3211.737316,N,03457.293592,E,1,09,2.5,59.0,M,19.0,M,,*77
$GPGSV,3,1,11,01,00,000,14,02,07,316,13,03,46,132,18,06,32,278,19*76
$GPGSV,3,2,11,07,51,227,15,09,55,330,18,22,12,135,16,23,55,033,17*7C
$GPGSV,3,3,11,30,21,222,19,16,27,068,,26,11,043,*4C
$GLGSV,2,1,08,78,05,202,14,66,60,054,19,82,04,274,15,77,58,192,14*67
$GLGSV,2,2,08,75,06,026,12,65,19,112,14,67,34,331,18,83,01,323,*64
$GPGSA,A,3,01,02,03,06,07,09,22,23,30,,,,1.7,1.4,0.9*32
$GPVTG,205.1,T,205.1,M,41.3,N,76.4,K,A*20
$GPRMC,061842,A,3211.726652,N,03457.288068,E,41.3,205.1,100416,3.0,E,A*29
$GPGGA,061842,3211.726652,N,03457.288068,E,1,09,1.4,60.0,M,19.0,M,,*73
$GPGSV,3,1,11,01,00,000,14,02,07,316,13,03,46,132,19,06,32,278,19*77
$GPGSV,3,2,11,07,51,227,15,09,55,330,18,22,12,135,16,23,55,033,17*7C
$GPGSV,3,3,11,30,21,222,19,16,27,068,,26,11,043,*4C
$GLGSV,2,1,08,78,05,202,14,66,60,054,19,82,04,274,15,77,58,192,14*67
$GLGSV,2,2,08,75,06,026,17,65,19,112,17,67,34,331,21,83,01,323,*68
$GPGSA,A,3,01,02,03,06,07,09,22,23,30,,,,2.4,2.2,1.0*3F
$GPVTG,209.8,T,209.8,M,41.2,N,76.3,K,A*26
$GPRMC,061843,A,3211.719917,N,03457.279593,E,41.2,209.8,100416,3.0,E,A*21
$GPGGA,061843,3211.719917,N,03457.279593,E,1,09,2.2,55.0,M,19.0,M,,*7C
$GPGSV,3,1,11,01,00,000,14,02,07,316,13,03,46,132,17,06,32,278,13*73
$GPGSV,3,2,11,07,51,227,15,09,55,330,19,22,12,135,16,23,55,033,17*7D
$GPGSV,3,3,11,30,21,222,15,16,27,068,,26,11,043,*40
$GLGSV,2,1,08,78,05,202,14,66,60,054,19,82,04,274,15,77,58,192,14*67
$GLGSV,2,2,08,75,06,026,17,65,19,112,17,67,34,331,23,83,01,323,*6A
$GPGSA,A,3,01,02,03,06,07,09,22,23,30,,,,1.7,1.4,1.0*3A
$GPVTG,211.4,T,211.4,M,41.8,N,77.4,K,A*2A
$GPRMC,061844,A,3211.709385,N,03457.273954,E,41.8,211.4,100416,3.0,E,A*24
$GPGGA,061844,3211.709385,N,03457.273954,E,1,09,1.4,55.0,M,19.0,M,,*73
$GPGSV,3,1,11,01,00,000,14,02,07,316,13,03,46,132,18,06,32,278,13*7C
$GPGSV,3,2,11,07,51,227,15,09,55,330,24,22,12,135,16,23,55,033,17*73
$GPGSV,3,3,11,30,21,222,19,16,27,068,,26,11,043,*4C
$GLGSV,2,1,08,78,05,202,14,66,60,054,19,82,04,274,15,77,58,192,17*64
$GLGSV,2,2,08,75,06,026,17,65,19,112,17,67,34,331,20,83,01,323,*69
$GPGSA,A,3,01,02,03,06,07,09,22,23,30,,,,1.8,1.5,1.0*34
$GPVTG,211.7,T,211.7,M,41.3,N,76.4,K,A*20
$GPRMC,061845,A,3211.699049,N,03457.267168,E,41.3,211.7,100416,3.0,E,A*24
$GPGGA,061845,3211.699049,N,03457.267168,E,1,09,1.5,54.0,M,19.0,M,,*7B
$GPGSV,3,1,11,01,00,000,14,02,07,316,13,03,46,132,18,06,32,278,13*7C
$GPGSV,3,2,11,07,51,227,15,09,55,330,24,22,12,135,16,23,55,033,17*73
$GPGSV,3,3,11,30,21,222,21,16,27,068,,26,11,043,*47
$GLGSV,2,1,08,78,05,202,14,66,60,054,19,82,04,274,15,77,58,192,18*6B
$GLGSV,2,2,08,75,06,026,17,65,19,112,17,67,34,331,20,83,01,323,*69
$GPGSA,A,3,01,02,03,06,07,09,22,23,30,,,,4.1,4.0,1.0*38
$GPVTG,214.0,T,214.0,M,40.9,N,75.8,K,A*24
$GPRMC,061846,A,3211.689267,N,03457.259798,E,40.9,214.0,100416,3.0,E,A*25
$GPGGA,061846,3211.689267,N,03457.259798,E,1,09,4.0,53.0,M,19.0,M,,*74
$GPGSV,3,1,11,01,00,000,14,02,07,316,13,03,46,132,15,06,32,278,13*71
$GPGSV,3,2,11,07,51,227,15,09,55,330,24,22,12,135,16,23,55,033,17*73
$GPGSV,3,3,11,30,21,222,23,16,27,068,,26,11,043,*45
$GLGSV,2,1,08,78,05,202,14,66,60,054,19,82,04,274,15,77,58,192,18*6B
$GLGSV,2,2,08,75,06,026,17,65,19,112,15,67,34,331,20,83,01,323,*6B
$GPGSA,A,3,01,02,03,06,07,09,22,23,30,,,,1.9,1.6,1.0*36
$GPVTG,214.2,T,214.2,M,40.6,N,75.2,K,A*21
$GPRMC,061847,A,3211.678512,N,03457.252449,E,40.6,214.2,100416,3.0,E,A*26
$GPGGA,061847,3211.678512,N,03457.252449,E,1,09,1.6,55.0,M,19.0,M,,*7F
$GPGSV,3,1,11,01,00,000,14,02,07,316,13,03,46,132,15,06,32,278,13*71
$GPGSV,3,2,11,07,51,227,20,09,55,330,25,22,12,135,16,23,55,033,17*74
$GPGSV,3,3,11,30,21,222,22,16,27,068,,26,11,043,*44
$GLGSV,2,1,08,78,05,202,14,66,60,054,12,82,04,274,15,77,58,192,18*60
$GLGSV,2,2,08,75,06,026,12,65,19,112,15,67,34,331,20,83,01,323,*6E
$GPGSA,A,3,01,02,03,06,07,09,22,23,30,,,,2.7,2.5,0.8*32
$GPVTG,213.6,T,213.6,M,40.9,N,75.7,K,A*2B
$GPRMC,061848,A,3211.669963,N,03457.245762,E,40.9,213.6,100416,3.0,E,A*23
$GPGGA,061848,3211.669963,N,03457.245762,E,1,09,2.5,53.0,M,19.0,M,,*70
$GPGSV,3,1,11,01,00,000,14,02,07,316,13,03,46,132,15,06,32,278,13*71
$GPGSV,3,2,11,07,51,227,21,09,55,330,27,22,12,135,16,23,55,033,17*77
$GPGSV,3,3,11,30,21,222,19,16,27,068,,26,11,043,*4C
$GLGSV,2,1,08,78,05,202,12,66,60,054,21,82,04,274,15,77,58,192,18*66
$GLGSV,2,2,08,75,06,026,12,65,19,112,16,67,34,331,17,83,01,323,*69
$GPGSA,A,3,01,02,03,06,07,09,22,23,30,,,,1.5,1.2,0.9*36
$GPVTG,213.3,T,213.3,M,40.4,N,74.8,K,A*28
$GPRMC,061849,A,3211.660826,N,03457.240077,E,40.4,213.3,100416,3.0,E,A*25
$GPGGA,061849,3211.660826,N,03457.240077,E,1,09,1.2,53.0,M,19.0,M,,*7A
$GPGSV,3,1,11,01,00,000,14,02,07,316,13,03,46,132,15,06,32,278,13*71
$GPGSV,3,2,11,07,51,227,21,09,55,330,24,22,12,135,16,23,55,033,17*74
$GPGSV,3,3,11,30,21,222,22,16,27,068,,26,11,043,*44
$GLGSV,2,1,08,78,05,202,13,66,60,054,18,82,04,274,15,77,58,192,18*6D
$GLGSV,2,2,08,75,06,026,15,65,19,112,16,67,34,331,20,83,01,323,*6A
$GPGSA,A,3,01,02,03,06,07,09,22,23,30,,,,1.7,1.5,0.8*32
$GPVTG,223.9,T,223.9,M,39.2,N,72.6,K,A*28
$GPRMC,061850,A,3211.651783,N,03457.234925,E,39.2,223.9,100416,3.0,E,A*23
$GPGGA,061850,3211.651783,N,03457.234925,E,1,09,1.5,48.0,M,19.0,M,,*70
$GPGSV,3,1,11,01,00,000,14,02,07,316,16,03,46,132,15,06,32,278,13*74
$GPGSV,3,2,11,07,51,227,22,09,55,330,22,22,12,135,16,23,55,033,17*71
$GPGSV,3,3,11,30,21,222,22,16,27,068,,26,11,043,*44
$GLGSV,2,1,08,78,05,202,13,66,60,054,19,82,04,274,15,77,58,192,15*61
$GLGSV,2,2,08,75,06,026,15,65,19,112,16,67,34,331,22,83,01,323,*68
$GPGSA,A,3,01,02,03,06,07,09,22,23,30,,,,1.4,1.1,0.8*35
$GPVTG,219.8,T,219.8,M,38.4,N,71.1,K,A*2B
$GPRMC,061851,A,3211.641996,N,03457.229754,E,38.4,219.8,100416,3.0,E,A*22
$GPGGA,061851,3211.641996,N,03457.229754,E,1,09,1.1,46.0,M,19.0,M,,*74
$GPGSV,3,1,11,01,00,000,14,02,07,316,16,03,46,132,15,06,32,278,13*74
$GPGSV,3,2,11,07,51,227,22,09,55,330,24,22,12,135,16,23,55,033,17*77
$GPGSV,3,3,11,30,21,222,21,16,27,068,,26,11,043,*47
$GLGSV,2,1,08,78,05,202,14,66,60,054,18,82,04,274,15,77,58,192,15*67
$GLGSV,2,2,08,75,06,026,15,65,19,112,16,67,34,331,20,83,01,323,*6A
$GPGSA,A,3,01,02,03,06,07,09,22,23,30,,,,1.7,1.5,0.8*32
$GPVTG,218.2,T,218.2,M,38.7,N,71.7,K,A*2E
$GPRMC,061852,A,3211.632781,N,03457.224584,E,38.7,218.2,100416,3.0,E,A*27
$GPGGA,061852,3211.632781,N,03457.224584,E,1,09,1.5,44.0,M,19.0,M,,*7F
$GPGSV,3,1,11,01,00,000,14,02,07,316,17,03,46,132,15,06,32,278,13*75
$GPGSV,3,2,11,07,51,227,20,09,55,330,23,22,12,135,16,23,55,033,10*75
$GPGSV,3,3,11,30,21,222,20,16,27,068,,26,11,043,*46
$GLGSV,2,1,08,78,05,202,14,66,60,054,21,82,04,274,15,77,58,192,17*6F
$GLGSV,2,2,08,75,06,026,15,65,19,112,15,67,34,331,18,83,01,323,*62
$GPGSA,A,3,01,02,03,06,07,09,22,23,30,,,,1.5,1.2,0.8*37
$GPVTG,215.1,T,215.1,M,37.3,N,69.0,K,A*2B
$GPRMC,061853,A,3211.623203,N,03457.219073,E,37.3,215.1,100416,3.0,E,A*2F
$GPGGA,061853,3211.623203,N,03457.219073,E,1,09,1.2,43.0,M,19.0,M,,*72
$GPGSV,3,1,11,01,00,000,14,02,07,316,17,03,46,132,15,06,32,278,11*77
$GPGSV,3,2,11,07,51,227,19,09,55,330,21,22,12,135,12,23,55,033,10*79
$GPGSV,3,3,11,30,21,222,20,16,27,068,,26,11,043,*46
$GLGSV,2,1,07,78,05,202,13,66,60,054,21,77,58,192,17,75,06,026,15*68
$GLGSV,2,2,07,65,19,112,19,67,34,331,19,83,01,323,*54
$GPGSA,A,3,01,02,03,06,07,09,22,23,30,,,,1.4,1.1,0.9*34
$GPVTG,228.0,T,228.0,M,34.0,N,63.0,K,A*21
$GPRMC,061854,A,3211.615781,N,03457.212791,E,34.0,228.0,100416,3.0,E,A*2D
$GPGGA,061854,3211.615781,N,03457.212791,E,1,09,1.1,43.0,M,19.0,M,,*7C
$GPGSV,3,1,11,01,00,000,14,02,07,316,17,03,46,132,15,06,32,278,11*77
$GPGSV,3,2,11,07,51,227,19,09,55,330,21,22,12,135,12,23,55,033,10*79
$GPGSV,3,3,11,30,21,222,16,16,27,068,,26,11,043,*43
$GLGSV,2,1,08,78,05,202,13,66,60,054,21,77,58,192,17,75,06,026,15*67
$GLGSV,2,2,08,65,19,112,19,67,34,331,21,82,04,274,,83,01,323,*6F
$GPGSA,A,3,01,02,03,06,07,09,22,23,30,,,,4.8,4.7,0.9*3E
$GPVTG,213.3,T,213.3,M,34.5,N,63.8,K,A*2C
$GPRMC,061855,A,3211.606919,N,03457.206689,E,34.5,213.3,100416,3.0,E,A*22
$GPGGA,061855,3211.606919,N,03457.206689,E,1,09,4.7,45.0,M,19.0,M,,*78
$GPGSV,3,1,11,01,00,000,14,02,07,316,17,03,46,132,15,06,32,278,11*77
$GPGSV,3,2,11,07,51,227,19,09,55,330,21,22,12,135,12,23,55,033,15*7C
$GPGSV,3,3,11,30,21,222,24,16,27,068,,26,11,043,*42
$GLGSV,2,1,08,78,05,202,13,66,60,054,16,77,58,192,17,75,06,026,14*62
$GLGSV,2,2,08,65,19,112,16,67,34,331,21,82,04,274,,83,01,323,*60
$GPGSA,A,3,01,02,03,06,07,09,22,23,30,,,,2.5,2.3,0.8*36
$GPVTG,217.4,T,217.4,M,32.7,N,60.6,K,A*25
$GPRMC,061856,A,3211.600311,N,03457.200434,E,32.7,217.4,100416,3.0,E,A*20
$GPGGA,061856,3211.600311,N,03457.200434,E,1,09,2.3,46.0,M,19.0,M,,*7C
$GPGSV,3,1,11,01,00,000,14,02,07,316,17,03,46,132,15,06,32,278,16*70
$GPGSV,3,2,11,07,51,227,19,09,55,330,21,22,12,135,12,23,55,033,17*7E
$GPGSV,3,3,11,30,21,222,22,16,27,068,,26,11,043,*44
$GLGSV,2,1,08,78,05,202,13,66,60,054,16,77,58,192,17,75,06,026,14*62
$GLGSV,2,2,08,65,19,112,20,67,34,331,21,82,04,274,,83,01,323,*65
$GPGSA,A,3,01,02,03,06,07,09,22,23,30,,,,2.3,2.0,1.0*3A
$GPVTG,218.1,T,218.1,M,29.8,N,55.1,K,A*21
$GPRMC,061857,A,3211.593481,N,03457.196097,E,29.8,218.1,100416,3.0,E,A*28
$GPGGA,061857,3211.593481,N,03457.196097,E,1,09,2.0,46.0,M,19.0,M,,*78
$GPGSV,3,1,11,01,00,000,14,02,07,316,17,03,46,132,15,06,32,278,18*7E
$GPGSV,3,2,11,07,51,227,19,09,55,330,19,22,12,135,12,23,55,033,18*7A
$GPGSV,3,3,11,30,21,222,21,16,27,068,,26,11,043,*47
$GLGSV,2,1,08,78,05,202,13,66,60,054,16,77,58,192,17,75,06,026,14*62
$GLGSV,2,2,08,65,19,112,18,67,34,331,16,82,04,274,,83,01,323,*6A
$GPGSA,A,3,01,02,03,06,07,09,22,23,30,,,,2.1,1.8,1.0*33
$GPVTG,215.0,T,215.0,M,25.7,N,47.6,K,A*26
$GPRMC,061858,A,3211.586961,N,03457.196308,E,25.7,215.0,100416,3.0,E,A*2A
$GPGGA,061858,3211.586961,N,03457.196308,E,1,09,1.8,45.0,M,19.0,M,,*7D
$GPGSV,3,1,11,01,00,000,14,02,07,316,17,03,46,132,15,06,32,278,18*7E
$GPGSV,3,2,11,07,51,227,19,09,55,330,19,22,12,135,12,23,55,033,18*7A
$GPGSV,3,3,11,30,21,222,21,16,27,068,,26,11,043,*47
$GLGSV,2,1,08,78,05,202,13,66,60,054,17,77,58,192,17,75,06,026,14*63
$GLGSV,2,2,08,65,19,112,20,67,34,331,16,82,04,274,,83,01,323,*61
$GPGSA,A,3,01,02,03,06,07,09,22,23,30,,,,500.0,500.0,500.0*3D
$GPVTG,224.2,T,224.2,M,25.2,N,46.6,K,A*22
$GPRMC,061859,A,3211.581148,N,03457.192241,E,25.2,224.2,100416,3.0,E,A*22
$GPGGA,061859,3211.581148,N,03457.192241,E,1,09,500.0,46.0,M,19.0,M,,*7F
$GPGSV,3,1,11,02,07,316,17,03,46,132,15,06,32,278,16,07,51,227,17*76
$GPGSV,3,2,11,09,55,330,19,22,12,135,13,23,55,033,16,30,21,222,19*73
$GPGSV,3,3,11,01,00,000,,16,27,068,,26,11,043,*47
$GLGSV,2,1,08,78,05,202,13,66,60,054,18,77,58,192,17,75,06,026,14*6C
$GLGSV,2,2,08,65,19,112,20,67,34,331,16,82,04,274,,83,01,323,*61
$GPGSA,A,3,02,03,06,07,09,22,23,30,,,,,1.4,1.1,0.9*35
$GPVTG,238.6,T,238.6,M,18.3,N,33.8,K,A*21
$GPRMC,061900,A,3211.579803,N,03457.188984,E,18.3,238.6,100416,3.0,E,A*21
$GPGGA,061900,3211.579803,N,03457.188984,E,1,08,1.1,75.0,M,19.0,M,,*7E
$GPGSV,3,1,11,02,07,316,17,03,46,132,15,06,32,278,16,07,51,227,17*76
$GPGSV,3,2,11,09,55,330,19,22,12,135,13,23,55,033,20,30,21,222,19*76
$GPGSV,3,3,11,01,00,000,,16,27,068,,26,11,043,*47
$GLGSV,2,1,08,78,05,202,13,66,60,054,20,77,58,192,17,75,06,026,14*67
$GLGSV,2,2,08,65,19,112,20,67,34,331,16,82,04,274,,83,01,323,*61
$GPGSA,A,3,02,03,06,07,09,22,23,30,,,,,500.0,500.0,500.0*3C
$GPVTG,235.6,T,235.6,M,16.5,N,30.6,K,A*24
$GPRMC,061901,A,3211.577550,N,03457.183809,E,16.5,235.6,100416,3.0,E,A*2F
$GPGGA,061901,3211.577550,N,03457.183809,E,1,08,500.0,74.0,M,19.0,M,,*71
$GPGSV,3,1,11,02,07,316,17,03,46,132,15,06,32,278,16,07,51,227,17*76
$GPGSV,3,2,11,09,55,330,15,22,12,135,13,23,55,033,21,30,21,222,19*7B
$GPGSV,3,3,11,01,00,000,,16,27,068,,26,11,043,*47
$GLGSV,2,1,08,78,05,202,13,66,60,054,20,77,58,192,17,75,06,026,14*67
$GLGSV,2,2,08,65,19,112,20,67,34,331,17,82,04,274,,83,01,323,*60
$GPGSA,A,3,02,03,06,07,09,22,23,30,,,,,6.3,6.2,1.0*39
$GPVTG,246.7,T,246.7,M,17.5,N,32.5,K,A*24
$GPRMC,061902,A,3211.577253,N,03457.177647,E,17.5,246.7,100416,3.0,E,A*23
$GPGGA,061902,3211.577253,N,03457.177647,E,1,08,6.2,71.0,M,19.0,M,,*7D
$GPGSV,3,1,11,02,07,316,17,03,46,132,11,06,32,278,17,07,51,227,17*73
$GPGSV,3,2,11,09,55,330,15,22,12,135,13,23,55,033,21,30,21,222,19*7B
$GPGSV,3,3,11,01,00,000,,16,27,068,,26,11,043,*47
$GLGSV,2,1,08,78,05,202,13,66,60,054,18,77,58,192,17,75,06,026,14*6C
$GLGSV,2,2,08,65,19,112,14,67,34,331,17,82,04,274,,83,01,323,*67
$GPGSA,A,3,02,03,06,07,09,22,23,30,,,,,2.9,2.7,1.0*36
$GPVTG,245.4,T,245.4,M,15.8,N,29.3,K,A*27
$GPRMC,061903,A,3211.575663,N,03457.173707,E,15.8,245.4,100416,3.0,E,A*29
$GPGGA,061903,3211.575663,N,03457.173707,E,1,08,2.7,68.0,M,19.0,M,,*71
$GPGSV,3,1,11,02,07,316,17,03,46,132,11,06,32,278,21,07,51,227,17*76
$GPGSV,3,2,11,09,55,330,15,22,12,135,13,23,55,033,18,30,21,222,19*71
$GPGSV,3,3,11,01,00,000,,16,27,068,,26,11,043,*47
$GLGSV,2,1,08,78,05,202,13,66,60,054,18,77,58,192,17,75,06,026,14*6C
$GLGSV,2,2,08,65,19,112,14,67,34,331,18,82,04,274,,83,01,323,*68
$GPGSA,A,3,02,03,06,07,09,22,23,30,,,,,3.8,3.7,1.0*37
$GPVTG,255.6,T,255.6,M,12.8,N,23.8,K,A*21
$GPRMC,061904,A,3211.576315,N,03457.170512,E,12.8,255.6,100416,3.0,E,A*28
$GPGGA,061904,3211.576315,N,03457.170512,E,1,08,3.7,66.0,M,19.0,M,,*7B
$GPGSV,3,1,11,02,07,316,17,03,46,132,11,06,32,278,21,07,51,227,17*76
$GPGSV,3,2,11,09,55,330,17,16,27,068,13,22,12,135,13,23,55,033,17*78
$GPGSV,3,3,11,30,21,222,13,01,00,000,,26,11,043,*4B
$GLGSV,2,1,08,78,05,202,13,66,60,054,18,82,04,274,12,77,58,192,17*65
$GLGSV,2,2,08,75,06,026,14,65,19,112,14,67,34,331,25,83,01,323,*6C
$GPGSA,A,3,02,03,06,07,09,16,22,23,30,,,,1.7,1.4,0.9*34
$GPVTG,276.9,T,276.9,M,15.4,N,28.5,K,A*2C
$GPRMC,061905,A,3211.580796,N,03457.162386,E,15.4,276.9,100416,3.0,E,A*22
$GPGGA,061905,3211.580796,N,03457.162386,E,1,09,1.4,62.0,M,19.0,M,,*70
$GPGSV,3,1,11,02,07,316,21,03,46,132,11,06,32,278,21,07,51,227,14*70
$GPGSV,3,2,11,09,55,330,25,16,27,068,14,22,12,135,13,23,55,033,18*71
$GPGSV,3,3,11,30,21,222,13,01,00,000,,26,11,043,*4B
$GLGSV,2,1,08,78,05,202,13,66,60,054,19,82,04,274,12,77,58,192,17*64
$GLGSV,2,2,08,75,06,026,14,65,19,112,14,67,34,331,25,83,01,323,*6C
$GPGSA,A,3,02,03,06,07,09,16,22,23,30,,,,1.4,1.1,0.8*33
$GPVTG,289.5,T,289.5,M,13.5,N,24.9,K,A*2B
$GPRMC,061906,A,3211.583671,N,03457.159251,E,13.5,289.5,100416,3.0,E,A*22
$GPGGA,061906,3211.583671,N,03457.159251,E,1,09,1.1,58.0,M,19.0,M,,*77
$GPGSV,3,1,11,02,07,316,21,03,46,132,11,06,32,278,16,07,51,227,14*74
$GPGSV,3,2,11,09,55,330,21,16,27,068,14,22,12,135,13,23,55,033,22*7C
$GPGSV,3,3,11,30,21,222,13,01,00,000,,26,11,043,*4B
$GLGSV,2,1,08,78,05,202,13,66,60,054,18,82,04,274,12,77,58,192,17*65
$GLGSV,2,2,08,75,06,026,14,65,19,112,14,67,34,331,20,83,01,323,*69
$GPGSA,A,3,02,03,06,07,09,16,22,23,30,,,,2.4,2.2,0.9*31
$GPVTG,300.4,T,300.4,M,11.4,N,21.2,K,A*26
$GPRMC,061907,A,3211.585493,N,03457.155627,E,11.4,300.4,100416,3.0,E,A*20
$GPGGA,061907,3211.585493,N,03457.155627,E,1,09,2.2,57.0,M,19.0,M,,*78
$GPGSV,3,1,11,02,07,316,21,03,46,132,11,06,32,278,18,07,51,227,14*7A
$GPGSV,3,2,11,09,55,330,21,16,27,068,14,22,12,135,15,23,55,033,19*72
$GPGSV,3,3,11,30,21,222,16,01,00,000,,26,11,043,*4E
$GLGSV,2,1,08,78,05,202,13,66,60,054,20,82,04,274,12,77,58,192,17*6E
$GLGSV,2,2,08,75,06,026,14,65,19,112,14,67,34,331,24,83,01,323,*6D
$GPGSA,A,3,02,03,06,07,09,16,22,23,30,,,,1.5,1.2,0.9*30
$GPVTG,327.7,T,327.7,M,11.8,N,21.8,K,A*20
$GPRMC,061908,A,3211.591254,N,03457.153680,E,11.8,327.7,100416,3.0,E,A*26
$GPGGA,061908,3211.591254,N,03457.153680,E,1,09,1.2,56.0,M,19.0,M,,*76
$GPGSV,3,1,11,02,07,316,17,03,46,132,14,06,32,278,19,07,51,227,16*79
$GPGSV,3,2,11,09,55,330,17,16,27,068,14,22,12,135,15,23,55,033,21*7C
$GPGSV,3,3,11,30,21,222,16,01,00,000,,26,11,043,*4E
$GLGSV,2,1,08,78,05,202,13,66,60,054,20,82,04,274,12,77,58,192,17*6E
$GLGSV,2,2,08,75,06,026,14,65,19,112,14,67,34,331,24,83,01,323,*6D
$GPGSA,A,3,02,03,06,07,09,16,22,23,30,,,,1.6,1.3,0.9*32
$GPVTG,355.5,T,355.5,M,12.5,N,23.1,K,A*25
$GPRMC,061909,A,3211.596268,N,03457.155927,E,12.5,355.5,100416,3.0,E,A*22
$GPGGA,061909,3211.596268,N,03457.155927,E,1,09,1.3,55.0,M,19.0,M,,*79
$GPGSV,3,1,11,02,07,316,18,03,46,132,14,06,32,278,19,07,51,227,19*79
$GPGSV,3,2,11,09,55,330,17,16,27,068,14,22,12,135,15,23,55,033,26*7B
$GPGSV,3,3,11,26,11,043,14,30,21,222,16,01,00,000,*4B
$GLGSV,2,1,08,78,05,202,13,66,60,054,19,82,04,274,12,77,58,192,17*64
$GLGSV,2,2,08,75,06,026,14,65,19,112,14,67,34,331,18,83,01,323,*62
$GPGSA,A,3,02,03,06,07,09,16,22,23,26,30,,,1.6,1.3,0.9*36
$GPVTG,21.5,T,21.5,M,10.0,N,18.6,K,A*2D
$GPRMC,061910,A,3211.597350,N,03457.158465,E,10.0,21.5,100416,3.0,E,A*10
$GPGGA,061910,3211.597350,N,03457.158465,E,1,10,1.3,54.0,M,19.0,M,,*75
$GPGSV,3,1,11,02,07,316,18,03,46,132,14,06,32,278,19,07,51,227,19*79
$GPGSV,3,2,11,09,55,330,17,16,27,068,20,22,12,135,15,23,55,033,23*79
$GPGSV,3,3,11,26,11,043,15,30,21,222,16,01,00,000,*4A
$GLGSV,2,1,08,78,05,202,13,66,60,054,20,82,04,274,12,77,58,192,17*6E
$GLGSV,2,2,08,75,06,026,14,65,19,112,14,67,34,331,18,83,01,323,*62
$GPGSA,A,3,02,03,06,07,09,16,22,23,26,30,,,3.2,3.1,0.9*30
$GPVTG,28.8,T,28.8,M,10.5,N,19.5,K,A*2A
$GPRMC,061911,A,3211.600384,N,03457.159043,E,10.5,28.8,100416,3.0,E,A*15
$GPGGA,061911,3211.600384,N,03457.159043,E,1,10,3.1,54.0,M,19.0,M,,*71
$GPGSV,3,1,11,02,07,316,18,03,46,132,16,06,32,278,16,07,51,227,19*74
$GPGSV,3,2,11,09,55,330,16,16,27,068,18,22,12,135,15,23,55,033,23*73
$GPGSV,3,3,11,26,11,043,16,30,21,222,16,01,00,000,*49
$GLGSV,2,1,08,78,05,202,13,66,60,054,20,82,04,274,12,77,58,192,17*6E
$GLGSV,2,2,08,75,06,026,14,65,19,112,14,67,34,331,17,83,01,323,*6D
$GPGSA,A,3,02,03,06,07,09,16,22,23,26,30,,,1.6,1.3,0.9*36
$GPVTG,35.5,T,35.5,M,10.6,N,19.7,K,A*2B
$GPRMC,061912,A,3211.602253,N,03457.161173,E,10.6,35.5,100416,3.0,E,A*14
$GPGGA,061912,3211.602253,N,03457.161173,E,1,10,1.3,53.0,M,19.0,M,,*75
$GPGSV,3,1,11,02,07,316,18,03,46,132,18,06,32,278,17,07,51,227,16*74
$GPGSV,3,2,11,09,55,330,16,16,27,068,20,22,12,135,13,23,55,033,16*78
$GPGSV,3,3,11,26,11,043,16,30,21,222,17,01,00,000,*48
$GLGSV,2,1,08,78,05,202,13,66,60,054,16,82,04,274,12,77,58,192,17*6B
$GLGSV,2,2,08,75,06,026,14,65,19,112,14,67,34,331,17,83,01,323,*6D
$GPGSA,A,3,02,03,06,07,09,16,22,23,26,30,,,1.3,0.9,0.8*39
$GPVTG,33.7,T,33.7,M,13.8,N,25.5,K,A*2B
$GPRMC,061913,A,3211.607767,N,03457.161633,E,13.8,33.7,100416,3.0,E,A*18
$GPGGA,061913,3211.607767,N,03457.161633,E,1,10,0.9,54.0,M,19.0,M,,*7C
$GPGSV,3,1,11,02,07,316,18,03,46,132,18,06,32,278,17,07,51,227,16*74
$GPGSV,3,2,11,09,55,330,16,16,27,068,24,22,12,135,13,23,55,033,16*7C
$GPGSV,3,3,11,26,11,043,16,30,21,222,17,01,00,000,*48
$GLGSV,2,1,07,66,60,054,22,82,04,274,12,77,58,192,17,75,06,026,14*6E
$GLGSV,2,2,07,65,19,112,11,67,34,331,17,83,01,323,*52
$GPGSA,A,3,02,03,06,07,09,16,22,23,26,30,,,5.5,5.4,1.0*3A
$GPVTG,34.9,T,34.9,M,14.0,N,25.8,K,A*29
$GPRMC,061914,A,3211.610926,N,03457.163543,E,14.0,34.9,100416,3.0,E,A*12
$GPGGA,061914,3211.610926,N,03457.163543,E,1,10,5.4,54.0,M,19.0,M,,*78
$GPGSV,3,1,11,02,07,316,18,03,46,132,20,06,32,278,17,07,51,227,16*7F
$GPGSV,3,2,11,09,55,330,16,16,27,068,23,22,12,135,13,23,55,033,16*7B
$GPGSV,3,3,11,26,11,043,16,30,21,222,17,01,00,000,*48
$GLGSV,2,1,08,66,60,054,22,82,04,274,12,77,58,192,17,75,06,026,14*61
$GLGSV,2,2,08,65,19,112,18,67,34,331,17,78,05,202,,83,01,323,*6E
$GPGSA,A,3,02,03,06,07,09,16,22,23,26,30,,,2.1,1.9,1.0*30
$GPVTG,34.3,T,34.3,M,14.2,N,26.3,K,A*23
$GPRMC,061915,A,3211.614741,N,03457.166455,E,14.2,34.3,100416,3.0,E,A*13
$GPGGA,061915,3211.614741,N,03457.166455,E,1,10,1.9,54.0,M,19.0,M,,*78
$GPGSV,3,1,11,02,07,316,18,03,46,132,23,06,32,278,17,07,51,227,18*72
$GPGSV,3,2,11,09,55,330,16,16,27,068,21,22,12,135,13,23,55,033,15*7A
$GPGSV,3,3,11,26,11,043,16,30,21,222,15,01,00,000,*4A
$GLGSV,2,1,08,66,60,054,20,82,04,274,12,77,58,192,17,75,06,026,14*63
$GLGSV,2,2,08,65,19,112,18,67,34,331,17,78,05,202,,83,01,323,*6E
$GPGSA,A,3,02,03,06,07,09,16,22,23,26,30,,,1.8,1.6,0.9*3D
$GPVTG,29.6,T,29.6,M,13.4,N,24.8,K,A*2B
$GPRMC,061916,A,3211.617844,N,03457.168736,E,13.4,29.6,100416,3.0,E,A*19
$GPGGA,061916,3211.617844,N,03457.168736,E,1,10,1.6,55.0,M,19.0,M,,*74
$GPGSV,3,1,11,02,07,316,18,03,46,132,23,06,32,278,17,07,51,227,18*72
$GPGSV,3,2,11,09,55,330,16,16,27,068,21,22,12,135,13,23,55,033,24*78
$GPGSV,3,3,11,26,11,043,15,30,21,222,15,01,00,000,*49
$GLGSV,2,1,07,66,60,054,20,82,04,274,12,75,06,026,14,65,19,112,18*6D
$GLGSV,2,2,07,67,34,331,17,78,05,202,,83,01,323,*51
$GPGSA,A,3,02,03,06,07,09,16,22,23,26,30,,,4.7,4.6,1.0*3A
$GPVTG,28.6,T,28.6,M,13.4,N,24.8,K,A*2B
$GPRMC,061917,A,3211.621066,N,03457.170874,E,13.4,28.6,100416,3.0,E,A*14
$GPGGA,061917,3211.621066,N,03457.170874,E,1,10,4.6,54.0,M,19.0,M,,*7C
$GPGSV,3,1,11,02,07,316,18,03,46,132,22,06,32,278,17,07,51,227,18*73
$GPGSV,3,2,11,09,55,330,14,16,27,068,21,22,12,135,13,23,55,033,25*7B
$GPGSV,3,3,11,26,11,043,15,30,21,222,15,01,00,000,*49
$GLGSV,2,1,08,66,60,054,18,82,04,274,12,75,06,026,12,65,19,112,18*6F
$GLGSV,2,2,08,67,34,331,17,78,05,202,,77,58,192,,83,01,323,*69
$GPGSA,A,3,02,03,06,07,09,16,22,23,26,30,,,2.1,1.9,0.9*38
$GPVTG,25.9,T,25.9,M,13.9,N,25.7,K,A*28
$GPRMC,061918,A,3211.624607,N,03457.172927,E,13.9,25.9,100416,3.0,E,A*15
$GPGGA,061918,3211.624607,N,03457.172927,E,1,10,1.9,53.0,M,19.0,M,,*7F
$GPGSV,3,1,11,02,07,316,18,03,46,132,22,06,32,278,17,07,51,227,18*73
$GPGSV,3,2,11,09,55,330,18,16,27,068,16,22,12,135,13,23,55,033,21*77
$GPGSV,3,3,11,26,11,043,15,30,21,222,15,01,00,000,*49
$GLGSV,2,1,08,66,60,054,18,82,04,274,12,75,06,026,12,65,19,112,18*6F
$GLGSV,2,2,08,67,34,331,17,78,05,202,,77,58,192,,83,01,323,*69
$GPGSA,A,3,02,03,06,07,09,16,22,23,26,30,,,20.3,20.3,1.0*3B
$GPVTG,19.9,T,19.9,M,13.0,N,24.2,K,A*25
$GPRMC,061919,A,3211.628022,N,03457.173776,E,13.0,19.9,100416,3.0,E,A*14
$GPGGA,061919,3211.628022,N,03457.173776,E,1,10,20.3,52.0,M,19.0,M,,*40
$GPGSV,3,1,11,02,07,316,18,03,46,132,15,06,32,278,17,07,51,227,18*77
$GPGSV,3,2,11,09,55,330,20,16,27,068,16,22,12,135,13,23,55,033,21*7C
